state,municipality,county,population,latitude,longitude
AK,Adak city,Aleutians West Census Area,154,51.909889,-176.598067
AK,Akhiok city,Kodiak Island Borough,64,56.948329,-154.215306
AK,Akiak city,Bethel Census Area,448,60.912838,-161.216225
AK,Akutan city,Aleutians East Borough,1586,54.139979,-165.763026
AK,Alakanuk city,Kusilvak Census Area,723,62.710997,-164.649719
AK,Aleknagik city,Dillingham Census Area,199,59.288961,-158.664343
AK,Allakaket city,Yukon-Koyukuk Census Area,171,66.542002,-152.583016
AK,Ambler city,Northwest Arctic Borough,254,67.090944,-157.887097
AK,Anaktuvuk Pass city,North Slope Borough,403,68.149752,-151.697066
AK,Anchorage municipality,Anchorage Municipality,286075,61.17425,-149.284329
AK,Anderson city,Denali Borough,173,64.308281,-149.163187
AK,Angoon city,Hoonah-Angoon Census Area,335,57.441257,-134.478357
AK,Aniak city,Bethel Census Area,494,61.578825,-159.547427
AK,Anvik city,Yukon-Koyukuk Census Area,71,62.631627,-160.215106
AK,Atka city,Aleutians West Census Area,54,52.211546,-174.213452
AK,Atqasuk city,North Slope Borough,255,70.480786,-157.325459
AK,Bethel city,Bethel Census Area,6292,60.793868,-161.796066
AK,Bettles city,Yukon-Koyukuk Census Area,24,66.906901,-151.537994
AK,Brevig Mission city,Nome Census Area,415,65.343196,-166.508946
AK,Buckland city,Northwest Arctic Borough,511,65.976489,-161.139436
AK,Chefornak city,Bethel Census Area,490,60.151941,-164.252067
AK,Chevak city,Kusilvak Census Area,908,61.52956,-165.594126
AK,Chignik city,Lake and Peninsula Borough,86,56.29518,-158.391784
AK,Chuathbaluk city,Bethel Census Area,99,61.573909,-159.247015
AK,Clark's Point city,Dillingham Census Area,63,58.832992,-158.527347
AK,Coffman Cove city,Prince of Wales-Hyder Census Area,125,56.001661,-132.841966
AK,Cold Bay city,Aleutians East Borough,52,55.215515,-162.775546
AK,Cordova city,Chugach Census Area,2473,60.530138,-145.642065
AK,Craig city,Prince of Wales-Hyder Census Area,1041,55.488746,-133.111568
AK,Deering city,Northwest Arctic Borough,170,66.069488,-162.764572
AK,Delta Junction city,Southeast Fairbanks Census Area,955,64.057347,-145.699997
AK,Dillingham city,Dillingham Census Area,2126,59.060467,-158.532251
AK,Diomede city,Nome Census Area,80,65.753924,-168.922577
AK,Eagle city,Southeast Fairbanks Census Area,85,64.781256,-141.197829
AK,Edna Bay city,Prince of Wales-Hyder Census Area,25,55.967618,-133.692253
AK,Eek city,Bethel Census Area,389,60.216265,-162.041999
AK,Egegik city,Lake and Peninsula Borough,34,58.205148,-157.521978
AK,Ekwok city,Dillingham Census Area,103,59.345782,-157.487023
AK,Elim city,Nome Census Area,360,64.618226,-162.27656
AK,Emmonak city,Kusilvak Census Area,787,62.77559,-164.50929
AK,Fairbanks city,Fairbanks North Star Borough,31856,64.836531,-147.651745
AK,False Pass city,Aleutians East Borough,401,54.872441,-163.334268
AK,Fort Yukon city,Yukon-Koyukuk Census Area,411,66.588406,-145.227642
AK,Galena city,Yukon-Koyukuk Census Area,457,64.741422,-156.873394
AK,Gambell city,Nome Census Area,620,63.775872,-171.714835
AK,Golovin city,Nome Census Area,166,64.563902,-162.998943
AK,Goodnews Bay city,Bethel Census Area,252,59.127165,-161.575325
AK,Grayling city,Yukon-Koyukuk Census Area,200,62.896051,-160.112989
AK,Gustavus city,Hoonah-Angoon Census Area,612,58.434657,-135.728152
AK,Holy Cross city,Yukon-Koyukuk Census Area,170,62.185115,-159.858776
AK,Homer city,Kenai Peninsula Borough,6040,59.647503,-151.513095
AK,Hoonah city,Hoonah-Angoon Census Area,948,58.12201,-135.431474
AK,Hooper Bay city,Kusilvak Census Area,1308,61.509167,-166.111471
AK,Houston city,Matanuska-Susitna Borough,2146,61.615303,-149.80061
AK,Hughes city,Yukon-Koyukuk Census Area,82,66.045217,-154.237627
AK,Huslia city,Yukon-Koyukuk Census Area,293,65.705524,-156.310953
AK,Hydaburg city,Prince of Wales-Hyder Census Area,375,55.205842,-132.820438
AK,Juneau city and borough,Juneau City and Borough,31555,58.37291,-134.178445
AK,Kachemak city,Kenai Peninsula Borough,591,59.674535,-151.436347
AK,Kake city,Prince of Wales-Hyder Census Area,537,56.97532,-133.903663
AK,Kaktovik city,North Slope Borough,272,70.121452,-143.629435
AK,Kaltag city,Yukon-Koyukuk Census Area,157,64.314143,-158.778761
AK,Kasaan city,Prince of Wales-Hyder Census Area,30,55.561145,-132.406834
AK,Kenai city,Kenai Peninsula Borough,7746,60.56224,-151.20806
AK,Ketchikan city,Ketchikan Gateway Borough,8079,55.357145,-131.674552
AK,Kiana city,Northwest Arctic Borough,422,66.972586,-160.434364
AK,King Cove city,Aleutians East Borough,771,55.084993,-162.316806
AK,Kivalina city,Northwest Arctic Borough,416,67.726893,-164.535573
AK,Klawock city,Prince of Wales-Hyder Census Area,710,55.556425,-133.08613
AK,Kobuk city,Northwest Arctic Borough,174,66.923402,-156.904071
AK,Kodiak city,Kodiak Island Borough,5354,57.791192,-152.419712
AK,Kotlik city,Kusilvak Census Area,628,63.02919,-163.536654
AK,Kotzebue city,Northwest Arctic Borough,2979,66.877089,-162.503478
AK,Koyuk city,Nome Census Area,297,64.941084,-161.145458
AK,Koyukuk city,Yukon-Koyukuk Census Area,94,64.902073,-157.693531
AK,Kupreanof city,Petersburg Borough,19,56.821295,-132.972152
AK,Kwethluk city,Bethel Census Area,782,60.79333,-161.430966
AK,Larsen Bay city,Kodiak Island Borough,33,57.529893,-154.001155
AK,Lower Kalskag city,Bethel Census Area,269,61.513975,-160.358929
AK,Manokotak city,Dillingham Census Area,464,58.727293,-158.906445
AK,Marshall city,Kusilvak Census Area,471,61.871555,-162.06087
AK,McGrath city,Yukon-Koyukuk Census Area,287,62.938875,-155.568422
AK,Mekoryuk city,Bethel Census Area,200,60.370272,-166.267711
AK,Mountain Village city,Kusilvak Census Area,594,62.091906,-163.695257
AK,Napakiak city,Bethel Census Area,344,60.690541,-161.985573
AK,Napaskiak city,Bethel Census Area,494,60.702782,-161.753782
AK,Nenana city,Yukon-Koyukuk Census Area,343,64.536054,-149.083629
AK,New Stuyahok city,Dillingham Census Area,491,59.484987,-157.309184
AK,Newhalen city,Lake and Peninsula Borough,150,59.737057,-154.902414
AK,Nightmute city,Bethel Census Area,293,60.462401,-164.83464
AK,Nikolai city,Yukon-Koyukuk Census Area,85,62.999115,-154.374944
AK,Nome city,Nome Census Area,3639,64.505741,-165.415287
AK,Nondalton city,Lake and Peninsula Borough,118,59.975246,-154.866046
AK,Noorvik city,Northwest Arctic Borough,645,66.82821,-161.034669
AK,North Pole city,Fairbanks North Star Borough,2427,64.752728,-147.362655
AK,Nuiqsut city,North Slope Borough,490,70.213483,-150.989674
AK,Nulato city,Yukon-Koyukuk Census Area,226,64.691283,-158.27535
AK,Nunam Iqua city,Kusilvak Census Area,209,62.506887,-164.900554
AK,Nunapitchuk city,Bethel Census Area,580,60.881767,-162.464564
AK,Old Harbor city,Kodiak Island Borough,207,57.218798,-153.329674
AK,Ouzinkie city,Kodiak Island Borough,102,57.92466,-152.462388
AK,Palmer city,Matanuska-Susitna Borough,6378,61.597166,-149.114682
AK,Pelican city,Hoonah-Angoon Census Area,92,57.959229,-136.215066
AK,Pilot Point city,Lake and Peninsula Borough,61,57.541137,-157.722807
AK,Pilot Station city,Kusilvak Census Area,592,61.948167,-162.872648
AK,Platinum city,Bethel Census Area,54,58.952583,-161.747032
AK,Point Hope city,North Slope Borough,781,68.34421,-166.681159
AK,Port Alexander city,Prince of Wales-Hyder Census Area,73,56.237593,-134.65275
AK,Port Heiden city,Lake and Peninsula Borough,91,56.965241,-158.586416
AK,Port Lions city,Kodiak Island Borough,165,57.867012,-152.856248
AK,Quinhagak city,Bethel Census Area,750,59.751279,-161.897243
AK,Ruby city,Yukon-Koyukuk Census Area,134,64.72329,-155.50054
AK,Russian Mission city,Kusilvak Census Area,404,61.778662,-161.362907
AK,Sand Point city,Aleutians East Borough,600,55.31347,-160.484344
AK,Savoonga city,Nome Census Area,804,63.679706,-170.483324
AK,Saxman city,Ketchikan Gateway Borough,382,55.323165,-131.58915
AK,Scammon Bay city,Kusilvak Census Area,578,61.841929,-165.583279
AK,Selawik city,Northwest Arctic Borough,760,66.59209,-160.002225
AK,Seldovia city,Kenai Peninsula Borough,248,59.43948,-151.710387
AK,Seward city,Kenai Peninsula Borough,2735,60.124786,-149.391581
AK,Shageluk city,Yukon-Koyukuk Census Area,96,62.661586,-159.551368
AK,Shaktoolik city,Nome Census Area,207,64.354481,-161.193514
AK,Shishmaref city,Nome Census Area,555,66.232966,-166.12533
AK,Shungnak city,Northwest Arctic Borough,254,66.880505,-157.149979
AK,Sitka city and borough,Sitka City and Borough,8282,57.193204,-135.367396
AK,Soldotna city,Kenai Peninsula Borough,4577,60.485318,-151.069014
AK,St. George city,Aleutians West Census Area,61,56.571044,-169.65994
AK,St. Mary's city,Kusilvak Census Area,577,62.062775,-163.244257
AK,St. Michael city,Nome Census Area,440,63.458499,-162.134486
AK,St. Paul city,Aleutians West Census Area,399,57.179076,-170.322824
AK,Stebbins city,Nome Census Area,612,63.473394,-162.259981
AK,Tanana city,Yukon-Koyukuk Census Area,235,65.184004,-152.055102
AK,Teller city,Nome Census Area,238,65.252359,-166.352133
AK,Tenakee Springs city,Hoonah-Angoon Census Area,111,57.790054,-135.135446
AK,Thorne Bay city,Prince of Wales-Hyder Census Area,470,55.667027,-132.535653
AK,Togiak city,Dillingham Census Area,778,59.052942,-160.396855
AK,Toksook Bay city,Bethel Census Area,638,60.528046,-165.106204
AK,Unalakleet city,Nome Census Area,741,63.894206,-160.796775
AK,Unalaska city,Aleutians West Census Area,4214,53.910255,-166.529029
AK,Upper Kalskag city,Bethel Census Area,209,61.53957,-160.3492
AK,Utqia?vik city,North Slope Borough,4694,71.253861,-156.798246
AK,Valdez city,Chugach Census Area,3805,61.083621,-146.317179
AK,Wainwright city,North Slope Borough,591,70.658232,-159.985214
AK,Wales city,Nome Census Area,162,65.613232,-168.068313
AK,Wasilla city,Matanuska-Susitna Borough,9945,61.581136,-149.46079
AK,Whale Pass city,Prince of Wales-Hyder Census Area,86,56.082115,-133.067469
AK,White Mountain city,Nome Census Area,177,64.682359,-163.412753
AK,Whittier city,Chugach Census Area,263,60.777318,-148.663713
AK,Wrangell city and borough,Wrangell City and Borough,2064,56.180779,-132.026788
AL,Abbeville city,Henry County,2377,31.564706,-85.259121
AL,Adamsville city,Jefferson County,4172,33.602315,-86.971527
AL,Addison town,Winston County,667,34.202681,-87.178004
AL,Akron town,Hale County,224,32.879066,-87.740899
AL,Alabaster city,Shelby County,34107,33.214355,-86.82308
AL,Albertville city,Marshall County,23031,34.26313,-86.21066
AL,Alexander City city,Tallapoosa County,14470,32.916719,-85.940589
AL,Aliceville city,Pickens County,2055,33.123706,-88.159344
AL,Allgood town,Blount County,556,33.907623,-86.516109
AL,Altoona town,Etowah County,950,34.040014,-86.305179
AL,Andalusia city,Covington County,8840,31.309436,-86.478031
AL,Anderson town,Lauderdale County,255,34.915675,-87.274274
AL,Anniston city,Calhoun County,21167,33.673469,-85.810891
AL,Arab city,Marshall County,8830,34.332387,-86.501167
AL,Ardmore town,Limestone County,1421,34.987838,-86.829022
AL,Argo town,St. Clair County,4386,33.691018,-86.505281
AL,Ariton town,Dale County,662,31.597772,-85.713061
AL,Arley town,Winston County,329,34.076234,-87.217831
AL,Ashford town,Houston County,2329,31.185284,-85.236236
AL,Ashland town,Clay County,1942,33.269892,-85.833706
AL,Ashville city,St. Clair County,2402,33.835197,-86.270015
AL,Athens city,Limestone County,30904,34.779021,-86.950799
AL,Atmore city,Escambia County,8315,31.124067,-87.457798
AL,Attalla city,Etowah County,5818,33.986189,-86.121037
AL,Auburn city,Lee County,82025,32.607806,-85.494746
AL,Autaugaville town,Autauga County,804,32.432563,-86.658752
AL,Avon town,Houston County,473,31.179727,-85.279211
AL,Babbie town,Covington County,640,31.302083,-86.319437
AL,Baileyton town,Cullman County,683,34.260858,-86.608788
AL,Bakerhill town,Barbour County,209,31.776923,-85.295408
AL,Banks town,Pike County,155,31.813264,-85.836434
AL,Bay Minette city,Baldwin County,8371,30.894436,-87.791306
AL,Bayou La Batre city,Mobile County,2155,30.407586,-88.263271
AL,Bear Creek town,Marion County,1056,34.255481,-87.713399
AL,Beatrice town,Monroe County,200,31.733309,-87.209046
AL,Beaverton town,Lamar County,185,33.935411,-88.021778
AL,Belk town,Fayette County,187,33.651641,-87.92861
AL,Benton town,Lowndes County,38,32.307931,-86.817546
AL,Berlin town,Cullman County,524,34.185005,-86.748955
AL,Berry town,Fayette County,1190,33.666702,-87.609311
AL,Bessemer city,Jefferson County,25037,33.370858,-86.971522
AL,Billingsley town,Autauga County,124,32.664711,-86.706713
AL,Birmingham city,Jefferson County,196644,33.527174,-86.797036
AL,Black town,Geneva County,233,31.00977,-85.74442
AL,Blountsville town,Blount County,1818,34.075838,-86.583918
AL,Blue Springs town,Barbour County,79,31.663516,-85.503526
AL,Boaz city,Marshall County,10369,34.19902,-86.155151
AL,Boligee town,Greene County,281,32.768081,-88.02859
AL,Bon Air town,Talladega County,167,33.25937,-86.327148
AL,Brantley town,Crenshaw County,803,31.581992,-86.256784
AL,Brent city,Bibb County,2659,32.944893,-87.172088
AL,Brewton city,Escambia County,5167,31.109175,-87.076583
AL,Bridgeport city,Jackson County,2262,34.949312,-85.723765
AL,Brighton city,Jefferson County,2237,33.439551,-86.945404
AL,Brilliant town,Marion County,830,34.025671,-87.769047
AL,Brookside town,Jefferson County,1200,33.634617,-86.906314
AL,Brookwood town,Tuscaloosa County,2440,33.239842,-87.331488
AL,Brundidge city,Pike County,2028,31.717639,-85.81755
AL,Butler town,Choctaw County,1767,32.096479,-88.210781
AL,Calera city,Shelby County,18189,33.122319,-86.745644
AL,Camden city,Wilcox County,1710,31.998493,-87.28895
AL,Camp Hill town,Tallapoosa County,965,32.797327,-85.655833
AL,Carbon Hill city,Walker County,1731,33.894991,-87.522078
AL,Cardiff town,Jefferson County,52,33.64729,-86.930637
AL,Carolina town,Covington County,289,31.23415,-86.521001
AL,Carrollton town,Pickens County,978,33.261903,-88.095071
AL,Castleberry town,Conecuh County,468,31.299678,-87.029129
AL,Cedar Bluff town,Cherokee County,1899,34.221422,-85.588565
AL,Center Point city,Jefferson County,15705,33.643903,-86.684567
AL,Centre city,Cherokee County,3782,34.153059,-85.671683
AL,Centreville city,Bibb County,2701,32.958967,-87.132043
AL,Chatom town,Washington County,1068,31.469145,-88.246019
AL,Chelsea city,Shelby County,16771,33.309007,-86.635139
AL,Cherokee town,Colbert County,966,34.7577,-87.965589
AL,Chickasaw city,Mobile County,6283,30.77145,-88.079697
AL,Childersburg city,Talladega County,4637,33.292549,-86.340844
AL,Citronelle city,Mobile County,3910,31.097269,-88.249843
AL,Clanton city,Chilton County,9123,32.845572,-86.619494
AL,Clay city,Jefferson County,10221,33.696583,-86.608182
AL,Clayhatchee town,Dale County,481,31.236925,-85.721478
AL,Clayton town,Barbour County,2212,31.882277,-85.460454
AL,Cleveland town,Blount County,1252,34.002179,-86.561352
AL,Clio city,Barbour County,1200,31.708516,-85.611039
AL,Coaling town,Tuscaloosa County,1986,33.169901,-87.349887
AL,Coffee Springs town,Geneva County,210,31.165836,-85.910898
AL,Coffeeville town,Clarke County,250,31.766564,-88.086049
AL,Coker town,Tuscaloosa County,880,33.243752,-87.681329
AL,Collinsville town,DeKalb County,2064,34.267224,-85.86861
AL,Colony town,Cullman County,275,33.941393,-86.902001
AL,Columbia town,Houston County,700,31.295351,-85.110202
AL,Columbiana city,Shelby County,4812,33.191452,-86.615618
AL,Coosada town,Elmore County,1265,32.495394,-86.326543
AL,Cordova city,Walker County,1672,33.761788,-87.199416
AL,Cottonwood town,Houston County,1086,31.054033,-85.29956
AL,County Line town,Blount County,318,33.818902,-86.714706
AL,Courtland town,Lawrence County,588,34.669946,-87.327892
AL,Cowarts town,Houston County,2000,31.206248,-85.309769
AL,Creola city,Mobile County,1967,30.874249,-88.009536
AL,Crossville town,DeKalb County,1838,34.282697,-85.999737
AL,Cuba town,Sumter County,284,32.440733,-88.374798
AL,Cullman city,Cullman County,19913,34.17687,-86.840656
AL,Cusseta town,Chambers County,149,32.787637,-85.305769
AL,Dadeville city,Tallapoosa County,2960,32.826114,-85.776201
AL,Daleville city,Dale County,4926,31.291534,-85.711711
AL,Daphne city,Baldwin County,30321,30.626072,-87.881783
AL,Dauphin Island town,Mobile County,1895,30.250913,-88.171268
AL,Daviston town,Tallapoosa County,176,33.056839,-85.634329
AL,Dayton town,Marengo County,27,32.350958,-87.641573
AL,Deatsville town,Elmore County,1723,32.589044,-86.389059
AL,Decatur city,Morgan County,58321,34.572995,-86.989901
AL,Demopolis city,Marengo County,6833,32.499744,-87.826678
AL,Detroit town,Lamar County,225,34.027379,-88.167831
AL,Dodge City town,Cullman County,564,34.043275,-86.885524
AL,Dora city,Walker County,2255,33.728116,-87.081292
AL,Dothan city,Houston County,71258,31.233698,-85.406823
AL,Double Springs town,Winston County,1114,34.149648,-87.389447
AL,Douglas town,Marshall County,782,34.168258,-86.323386
AL,Dozier town,Crenshaw County,285,31.505407,-86.369235
AL,Dutton town,Jackson County,339,34.606152,-85.91185
AL,East Brewton city,Escambia County,2252,31.09144,-87.055345
AL,Eclectic town,Elmore County,1209,32.640222,-86.041062
AL,Edwardsville town,Cleburne County,212,33.88374,-85.414124
AL,Elba city,Coffee County,3522,31.417218,-86.077115
AL,Elberta town,Baldwin County,2109,30.373753,-87.595729
AL,Eldridge town,Walker County,137,33.923053,-87.622869
AL,Elkmont town,Limestone County,436,34.932604,-86.976971
AL,Elmore town,Elmore County,1394,32.556606,-86.341025
AL,Emelle town,Sumter County,24,32.728678,-88.316486
AL,Enterprise city,Coffee County,30271,31.326898,-85.844021
AL,Epes town,Sumter County,262,32.695049,-88.141963
AL,Ethelsville town,Pickens County,50,33.414066,-88.216093
AL,Eufaula city,Barbour County,12451,31.909937,-85.152709
AL,Eutaw town,Greene County,2761,32.846247,-87.900332
AL,Eva town,Morgan County,589,34.326504,-86.765318
AL,Evergreen city,Conecuh County,3359,31.433216,-86.976081
AL,Excel town,Monroe County,531,31.426386,-87.343663
AL,Fairfield city,Jefferson County,9582,33.474802,-86.919407
AL,Fairhope city,Baldwin County,24974,30.52092,-87.879122
AL,Fairview town,Cullman County,537,34.250195,-86.677724
AL,Falkville town,Morgan County,1195,34.377019,-86.909547
AL,Faunsdale town,Marengo County,84,32.457614,-87.593789
AL,Fayette city,Fayette County,4128,33.694215,-87.831169
AL,Five Points town,Chambers County,117,33.017311,-85.351592
AL,Flomaton town,Escambia County,1452,31.014816,-87.256016
AL,Florala town,Covington County,1934,31.022391,-86.318152
AL,Florence city,Lauderdale County,42437,34.830323,-87.666139
AL,Foley city,Baldwin County,24873,30.397009,-87.664211
AL,Forkland town,Greene County,424,32.647435,-87.867436
AL,Fort Deposit town,Lowndes County,1153,31.986261,-86.566359
AL,Fort Payne city,DeKalb County,14957,34.457329,-85.689447
AL,Franklin town,Macon County,567,32.452693,-85.78541
AL,Frisco City town,Monroe County,1124,31.439485,-87.404182
AL,Fruithurst town,Cleburne County,248,33.729539,-85.431249
AL,Fulton town,Clarke County,216,31.790989,-87.744212
AL,Fultondale city,Jefferson County,9617,33.617363,-86.801436
AL,Fyffe town,DeKalb County,982,34.448957,-85.905167
AL,Gadsden city,Etowah County,33229,34.006597,-86.016078
AL,Gainesville town,Sumter County,164,32.814934,-88.160791
AL,Gantt town,Covington County,202,31.41074,-86.483524
AL,Garden City town,Cullman County,541,34.014688,-86.749054
AL,Gardendale city,Jefferson County,16096,33.676587,-86.809844
AL,Gaylesville town,Cherokee County,174,34.267444,-85.561248
AL,Geiger town,Sumter County,154,32.868715,-88.318154
AL,Geneva city,Geneva County,4217,31.044886,-85.876818
AL,Georgiana town,Butler County,1273,31.639134,-86.746762
AL,Geraldine town,DeKalb County,913,34.359087,-86.002579
AL,Gilbertown town,Choctaw County,714,31.866247,-88.307545
AL,Glen Allen town,Fayette County,422,33.892108,-87.732682
AL,Glencoe city,Etowah County,5404,33.948339,-85.933606
AL,Glenwood town,Crenshaw County,151,31.671266,-86.173687
AL,Goldville town,Tallapoosa County,56,33.084867,-85.777982
AL,Good Hope city,Cullman County,2615,34.110689,-86.867104
AL,Goodwater town,Coosa County,1257,33.060713,-86.052486
AL,Gordo town,Pickens County,1578,33.322286,-87.903681
AL,Gordon town,Houston County,297,31.143606,-85.092504
AL,Gordonville town,Lowndes County,232,32.159179,-86.704235
AL,Goshen town,Pike County,266,31.720015,-86.123245
AL,Grant town,Marshall County,1057,34.518173,-86.26043
AL,Graysville city,Jefferson County,1860,33.633756,-86.941398
AL,Greensboro city,Hale County,2163,32.700968,-87.5937
AL,Greenville city,Butler County,7030,31.843072,-86.636951
AL,Grimes town,Dale County,585,31.299869,-85.45029
AL,Grove Hill town,Clarke County,1742,31.69867,-87.772868
AL,Gu-Win town,Marion County,143,33.94433,-87.870376
AL,Guin city,Marion County,2147,33.98322,-87.902363
AL,Gulf Shores city,Baldwin County,16850,30.275837,-87.701258
AL,Guntersville city,Marshall County,9028,34.367947,-86.252323
AL,Gurley town,Madison County,850,34.701364,-86.380271
AL,Hackleburg town,Marion County,1438,34.269355,-87.830402
AL,Haleburg town,Henry County,116,31.409976,-85.138068
AL,Haleyville city,Winston County,4301,34.233832,-87.617574
AL,Hamilton city,Marion County,6952,34.138713,-87.970833
AL,Hammondville town,DeKalb County,423,34.566232,-85.640348
AL,Hanceville city,Cullman County,3324,34.06401,-86.764436
AL,Harpersville town,Shelby County,1817,33.317725,-86.428431
AL,Hartford city,Geneva County,2726,31.105348,-85.691225
AL,Hartselle city,Morgan County,15875,34.440434,-86.940364
AL,Hayden town,Blount County,1355,33.894514,-86.744224
AL,Hayneville town,Lowndes County,777,32.182595,-86.578588
AL,Headland city,Henry County,5333,31.354974,-85.357031
AL,Heath town,Covington County,241,31.344839,-86.46905
AL,Heflin city,Cleburne County,3507,33.6474,-85.569339
AL,Helena city,Shelby County,22117,33.283424,-86.879177
AL,Henagar city,DeKalb County,2305,34.630641,-85.730918
AL,Highland Lake town,Blount County,424,33.894586,-86.422553
AL,Hillsboro town,Lawrence County,406,34.642586,-87.178489
AL,Hobson City town,Calhoun County,744,33.618801,-85.846146
AL,Hodges town,Franklin County,262,34.334246,-87.92316
AL,Hokes Bluff city,Etowah County,4648,33.989682,-85.862873
AL,Holly Pond town,Cullman County,860,34.167686,-86.612067
AL,Hollywood town,Jackson County,928,34.717279,-85.965579
AL,Homewood city,Jefferson County,27758,33.45855,-86.80965
AL,Hoover city,Jefferson County,92448,33.37903,-86.808905
AL,Horn Hill town,Covington County,208,31.238137,-86.325163
AL,Hueytown city,Jefferson County,16202,33.408604,-87.016565
AL,Huntsville city,Madison County,225564,34.69772,-86.67667
AL,Hurtsboro town,Russell County,340,32.24009,-85.41467
AL,Hytop town,Jackson County,448,34.896635,-86.089176
AL,Ider town,DeKalb County,735,34.702599,-85.668958
AL,Indian Springs Village city,Shelby County,2492,33.361209,-86.746856
AL,Irondale city,Jefferson County,13526,33.539914,-86.659082
AL,Jackson city,Clarke County,4525,31.532321,-87.891183
AL,Jacksons' Gap town,Tallapoosa County,751,32.884019,-85.815046
AL,Jacksonville city,Calhoun County,14682,33.810066,-85.755217
AL,Jasper city,Walker County,14448,33.85111,-87.268348
AL,Jemison city,Chilton County,2941,32.970705,-86.73307
AL,Kansas town,Walker County,176,33.902808,-87.556598
AL,Kellyton town,Coosa County,124,32.979188,-86.034608
AL,Kennedy town,Lamar County,427,33.580722,-87.9855
AL,Killen town,Lauderdale County,1035,34.860954,-87.529346
AL,Kimberly city,Jefferson County,4463,33.776989,-86.800211
AL,Kinsey town,Houston County,2263,31.296269,-85.334994
AL,Kinston town,Coffee County,595,31.219604,-86.170075
AL,La Fayette city,Chambers County,2625,32.899427,-85.400795
AL,Lake View town,Tuscaloosa County,3794,33.288266,-87.132653
AL,Lakeview town,DeKalb County,163,34.391675,-85.975573
AL,Lanett city,Chambers County,6751,32.858649,-85.207788
AL,Langston town,Jackson County,270,34.545063,-86.09335
AL,Leeds city,Jefferson County,12416,33.546847,-86.571448
AL,Leesburg town,Cherokee County,985,34.178627,-85.777897
AL,Leighton town,Colbert County,653,34.69368,-87.524282
AL,Lester town,Limestone County,119,34.982751,-87.155534
AL,Level Plains town,Dale County,1831,31.307125,-85.768722
AL,Lexington town,Lauderdale County,735,34.959351,-87.37283
AL,Libertyville town,Covington County,108,31.24005,-86.456955
AL,Lincoln city,Talladega County,7514,33.580169,-86.127876
AL,Linden city,Marengo County,1848,32.30136,-87.792583
AL,Lineville city,Clay County,2484,33.312832,-85.752278
AL,Lipscomb city,Jefferson County,2006,33.426005,-86.926103
AL,Lisman town,Choctaw County,415,32.171729,-88.284092
AL,Littleville town,Colbert County,1045,34.595121,-87.670729
AL,Livingston city,Sumter County,3152,32.595549,-88.186929
AL,Loachapoka town,Lee County,162,32.607946,-85.598479
AL,Lockhart town,Covington County,446,31.013011,-86.350273
AL,Locust Fork town,Blount County,1233,33.876794,-86.647093
AL,Louisville town,Barbour County,390,31.781047,-85.558336
AL,Lowndesboro town,Lowndes County,78,32.276422,-86.610848
AL,Loxley town,Baldwin County,4623,30.684588,-87.739213
AL,Luverne city,Crenshaw County,2688,31.718941,-86.269082
AL,Lynn town,Winston County,618,34.057591,-87.548643
AL,Madison city,Madison County,60854,34.710533,-86.76228
AL,Madrid town,Houston County,262,31.035635,-85.399205
AL,Magnolia Springs town,Baldwin County,844,30.40341,-87.775895
AL,Malvern town,Geneva County,1567,31.143698,-85.522973
AL,Maplesville town,Chilton County,651,32.784391,-86.879694
AL,Margaret town,St. Clair County,6236,33.672861,-86.463942
AL,Marion city,Perry County,2734,32.631968,-87.317333
AL,Maytown town,Jefferson County,312,33.549954,-87.000043
AL,McIntosh town,Washington County,197,31.264957,-88.028369
AL,McKenzie town,Butler County,494,31.54647,-86.725954
AL,McMullen town,Pickens County,29,33.1481,-88.175749
AL,Memphis town,Pickens County,25,33.137044,-88.305942
AL,Mentone town,DeKalb County,325,34.563209,-85.589704
AL,Midfield city,Jefferson County,4960,33.455272,-86.922414
AL,Midland City town,Dale County,2296,31.315675,-85.493674
AL,Midway town,Bullock County,404,32.076373,-85.524417
AL,Millbrook city,Elmore County,17367,32.501474,-86.373914
AL,Millport town,Lamar County,973,33.555935,-88.082382
AL,Millry town,Washington County,438,31.621199,-88.327956
AL,Mobile city,Mobile County,182595,30.668426,-88.100226
AL,Monroeville city,Monroe County,5734,31.516223,-87.327714
AL,Montevallo city,Shelby County,7708,33.126053,-86.847702
AL,Montgomery city,Montgomery County,195287,32.348503,-86.267307
AL,Moody city,St. Clair County,13595,33.603429,-86.493786
AL,Mooresville town,Limestone County,48,34.625883,-86.880025
AL,Morris town,Jefferson County,2249,33.746223,-86.800755
AL,Mosses town,Lowndes County,789,32.188758,-86.679435
AL,Moulton city,Lawrence County,3426,34.488302,-87.282707
AL,Moundville town,Hale County,3516,32.996542,-87.627545
AL,Mount Vernon town,Mobile County,1376,31.087727,-88.013166
AL,Mountain Brook city,Jefferson County,21737,33.491488,-86.73447
AL,Mulga town,Jefferson County,766,33.556313,-86.972304
AL,Munford town,Talladega County,1343,33.527644,-85.953809
AL,Muscle Shoals city,Colbert County,17210,34.742657,-87.633767
AL,Myrtlewood town,Marengo County,69,32.252088,-87.949261
AL,Napier Field town,Dale County,415,31.314925,-85.454929
AL,Natural Bridge town,Winston County,35,34.090354,-87.601409
AL,Nauvoo town,Walker County,185,33.984386,-87.48544
AL,Nectar town,Blount County,386,33.979779,-86.620614
AL,Needham town,Choctaw County,71,31.987,-88.336563
AL,New Brockton town,Coffee County,1498,31.37671,-85.919028
AL,New Hope city,Madison County,2927,34.537972,-86.412372
AL,New Site town,Tallapoosa County,768,33.026041,-85.784536
AL,Newbern town,Hale County,132,32.591672,-87.535614
AL,Newton town,Dale County,1645,31.341229,-85.588307
AL,Newville town,Henry County,558,31.420604,-85.33669
AL,North Courtland town,Lawrence County,490,34.680023,-87.305717
AL,North Johns town,Jefferson County,126,33.367769,-87.100725
AL,Northport city,Tuscaloosa County,31111,33.257565,-87.596396
AL,Notasulga town,Macon County,875,32.555409,-85.668577
AL,Oak Grove town,Talladega County,592,33.190359,-86.303727
AL,Oak Hill town,Wilcox County,13,31.92162,-87.085234
AL,Oakman town,Walker County,751,33.714322,-87.388699
AL,Odenville city,St. Clair County,5352,33.700875,-86.423371
AL,Ohatchee town,Calhoun County,1197,33.789759,-86.029062
AL,Oneonta city,Blount County,6995,33.947038,-86.489793
AL,Onycha town,Covington County,175,31.225693,-86.276024
AL,Opelika city,Lee County,33572,32.660739,-85.37889
AL,Opp city,Covington County,6757,31.284375,-86.257442
AL,Orange Beach city,Baldwin County,8534,30.293987,-87.595371
AL,Orrville town,Dallas County,143,32.306769,-87.245447
AL,Owens Cross Roads town,Madison County,2917,34.585458,-86.455027
AL,Oxford city,Calhoun County,22078,33.59641,-85.868219
AL,Ozark city,Dale County,14346,31.451615,-85.645035
AL,Paint Rock town,Jackson County,179,34.660934,-86.333952
AL,Parrish town,Walker County,970,33.732321,-87.280127
AL,Pelham city,Shelby County,25121,33.32183,-86.742197
AL,Pell City city,St. Clair County,13924,33.560312,-86.263634
AL,Pennington town,Choctaw County,325,32.200612,-88.037572
AL,Perdido Beach town,Baldwin County,578,30.353879,-87.5048
AL,Petrey town,Crenshaw County,64,31.85216,-86.204007
AL,Phenix City city,Russell County,38441,32.453709,-85.031019
AL,Phil Campbell town,Franklin County,979,34.351547,-87.707359
AL,Pickensville town,Pickens County,544,33.235782,-88.289443
AL,Piedmont city,Calhoun County,4705,33.927557,-85.615267
AL,Pike Road town,Montgomery County,11117,32.273609,-86.118927
AL,Pinckard town,Dale County,592,31.318989,-85.537836
AL,Pine Apple town,Wilcox County,130,31.872155,-86.989059
AL,Pine Hill town,Wilcox County,712,31.985884,-87.587516
AL,Pine Ridge town,DeKalb County,267,34.447915,-85.783831
AL,Pinson city,Jefferson County,7753,33.709262,-86.663613
AL,Pisgah town,Jackson County,689,34.684366,-85.84601
AL,Pleasant Grove city,Jefferson County,9390,33.493967,-86.97815
AL,Pleasant Groves town,Jackson County,431,34.737619,-86.197637
AL,Pollard town,Escambia County,125,31.023877,-87.172978
AL,Powell town,DeKalb County,924,34.532588,-85.897553
AL,Prattville city,Autauga County,39318,32.449041,-86.449401
AL,Priceville town,Morgan County,3800,34.529583,-86.882177
AL,Prichard city,Mobile County,18816,30.773337,-88.131416
AL,Providence town,Marengo County,162,32.342386,-87.776115
AL,Ragland town,St. Clair County,1705,33.748325,-86.135927
AL,Rainbow City city,Etowah County,10322,33.928777,-86.084228
AL,Rainsville city,DeKalb County,5768,34.494364,-85.836505
AL,Ranburne town,Cleburne County,431,33.525853,-85.339013
AL,Red Bay city,Franklin County,3184,34.436097,-88.136515
AL,Red Level town,Covington County,434,31.406711,-86.606217
AL,Reece City town,Etowah County,607,34.077241,-86.034498
AL,Reform town,Pickens County,1461,33.37826,-88.017273
AL,Rehobeth town,Houston County,2013,31.124507,-85.439607
AL,Repton town,Conecuh County,229,31.409716,-87.238931
AL,Ridgeville town,Etowah County,83,34.056929,-86.102874
AL,River Falls town,Covington County,491,31.352397,-86.544609
AL,Riverside city,St. Clair County,2266,33.616394,-86.204357
AL,Riverview town,Escambia County,164,31.06126,-87.077531
AL,Roanoke city,Randolph County,5387,33.145305,-85.369526
AL,Robertsdale city,Baldwin County,7421,30.557139,-87.704723
AL,Rockford town,Coosa County,349,32.896866,-86.208346
AL,Rogersville town,Lauderdale County,1385,34.827714,-87.284092
AL,Rosa town,Blount County,380,33.992756,-86.500325
AL,Russellville city,Franklin County,10722,34.505719,-87.728123
AL,Rutledge town,Crenshaw County,349,31.724072,-86.302008
AL,Samson city,Geneva County,1860,31.112417,-86.046735
AL,Sand Rock town,Cherokee County,600,34.231228,-85.770416
AL,Sanford town,Covington County,264,31.298819,-86.398848
AL,Saraland city,Mobile County,16435,30.854566,-88.109842
AL,Sardis City town,Etowah County,1787,34.172413,-86.119104
AL,Satsuma city,Mobile County,6849,30.857874,-88.063383
AL,Scottsboro city,Jackson County,15863,34.64462,-86.048155
AL,Section town,Jackson County,773,34.581644,-85.984942
AL,Selma city,Dallas County,16666,32.416983,-87.035702
AL,Semmes city,Mobile County,5846,30.796223,-88.24759
AL,Sheffield city,Colbert County,9307,34.757019,-87.697085
AL,Shiloh town,DeKalb County,328,34.462666,-85.877617
AL,Shorter town,Macon County,371,32.411501,-85.972808
AL,Silas town,Choctaw County,365,31.767802,-88.325923
AL,Silverhill town,Baldwin County,1923,30.545359,-87.750557
AL,Sipsey town,Walker County,352,33.822119,-87.082918
AL,Skyline town,Jackson County,851,34.798524,-86.12243
AL,Slocomb city,Geneva County,2133,31.112126,-85.59866
AL,Smiths Station city,Lee County,5477,32.522852,-85.099425
AL,Snead town,Blount County,1042,34.116228,-86.390916
AL,Somerville town,Morgan County,817,34.467053,-86.791203
AL,South Vinemont town,Cullman County,609,34.235567,-86.863965
AL,Southside city,Etowah County,9597,33.890841,-86.01802
AL,Spanish Fort city,Baldwin County,10923,30.722968,-87.865917
AL,Springville city,St. Clair County,5233,33.74052,-86.484086
AL,St. Florian town,Lauderdale County,704,34.874098,-87.623736
AL,Steele town,St. Clair County,1000,33.941378,-86.192107
AL,Stevenson city,Jackson County,1973,34.876797,-85.81435
AL,Sulligent city,Lamar County,1832,33.891189,-88.126633
AL,Sumiton city,Walker County,2528,33.749269,-87.046903
AL,Summerdale town,Baldwin County,1576,30.476741,-87.687561
AL,Susan Moore town,Blount County,799,34.091999,-86.434156
AL,Sweet Water town,Marengo County,219,32.104614,-87.861889
AL,Sylacauga city,Talladega County,12216,33.18867,-86.274799
AL,Sylvan Springs town,Jefferson County,1604,33.530194,-87.031158
AL,Sylvania town,DeKalb County,1809,34.562039,-85.804722
AL,Talladega Springs town,Talladega County,143,33.120452,-86.437761
AL,Talladega city,Talladega County,14768,33.431757,-86.099454
AL,Tallassee city,Elmore County,4753,32.532665,-85.891993
AL,Tarrant city,Jefferson County,5833,33.592897,-86.766253
AL,Taylor town,Houston County,2309,31.168811,-85.47579
AL,Thomaston town,Marengo County,318,32.268277,-87.623706
AL,Thomasville city,Clarke County,3583,31.915011,-87.737204
AL,Thorsby town,Chilton County,2148,32.916909,-86.720335
AL,Town Creek town,Lawrence County,1063,34.671301,-87.407763
AL,Toxey town,Choctaw County,137,31.910712,-88.309146
AL,Trafford town,Jefferson County,592,33.818713,-86.746502
AL,Triana town,Madison County,4456,34.587779,-86.748488
AL,Trinity town,Morgan County,2567,34.597445,-87.081354
AL,Troy city,Pike County,17836,31.80196,-85.96713
AL,Trussville city,Jefferson County,26770,33.655233,-86.563239
AL,Tuscaloosa city,Tuscaloosa County,111338,33.234404,-87.5283
AL,Tuscumbia city,Colbert County,9169,34.718502,-87.702586
AL,Tuskegee city,Macon County,8765,32.418723,-85.682509
AL,Twin town,Marion County,359,33.992314,-87.852295
AL,Union Grove town,Marshall County,71,34.406172,-86.451667
AL,Union Springs city,Bullock County,3154,32.139506,-85.714623
AL,Union town,Greene County,167,32.99381,-87.907179
AL,Uniontown town,Perry County,1963,32.44662,-87.487271
AL,Valley Grande city,Dallas County,3982,32.486872,-87.032773
AL,Valley Head town,DeKalb County,590,34.556204,-85.623044
AL,Valley city,Chambers County,10308,32.801427,-85.204438
AL,Vance town,Tuscaloosa County,2263,33.173992,-87.226627
AL,Vernon city,Lamar County,1849,33.758816,-88.114291
AL,Vestavia Hills city,Jefferson County,38020,33.462496,-86.739508
AL,Vina town,Franklin County,322,34.376175,-88.060572
AL,Vincent town,Shelby County,2024,33.383145,-86.402544
AL,Vredenburgh town,Monroe County,218,31.823234,-87.318077
AL,Wadley town,Randolph County,844,33.1234,-85.568592
AL,Waldo town,Talladega County,256,33.387083,-86.041075
AL,Walnut Grove town,Etowah County,778,34.064595,-86.28717
AL,Warrior city,Jefferson County,3187,33.814858,-86.81565
AL,Waterloo town,Lauderdale County,183,34.917199,-88.064373
AL,Waverly town,Chambers County,150,32.730078,-85.570999
AL,Weaver city,Calhoun County,3330,33.75907,-85.809363
AL,Webb town,Houston County,1312,31.257237,-85.289622
AL,Wedowee town,Randolph County,747,33.308004,-85.4865
AL,West Blocton town,Bibb County,1189,33.118176,-87.125225
AL,West Jefferson town,Jefferson County,466,33.673375,-87.040582
AL,West Point town,Cullman County,640,34.238735,-86.964017
AL,Westover town,Shelby County,1911,33.36734,-86.533986
AL,Wetumpka city,Elmore County,7218,32.540376,-86.206999
AL,White Hall town,Lowndes County,756,32.297411,-86.715776
AL,Wilsonville town,Shelby County,1926,33.240752,-86.491105
AL,Wilton town,Shelby County,593,33.081565,-86.879655
AL,Winfield city,Marion County,4869,33.934717,-87.79131
AL,Woodland town,Randolph County,227,33.375627,-85.397439
AL,Woodstock town,Bibb County,1579,33.217498,-87.148433
AL,Woodville town,Jackson County,751,34.629535,-86.283558
AL,Yellow Bluff town,Wilcox County,216,31.962341,-87.477359
AL,York city,Sumter County,2307,32.500586,-88.291394
AR,Adona city,Perry County,147,35.03993,-92.899132
AR,Alexander city,Saline County,3740,34.618588,-92.451217
AR,Alicia town,Lawrence County,140,35.892907,-91.08345
AR,Allport town,Lonoke County,90,34.539866,-91.783886
AR,Alma city,Crawford County,5997,35.492375,-94.213947
AR,Almyra town,Arkansas County,249,34.405689,-91.410847
AR,Alpena town,Boone County,385,36.292748,-93.303607
AR,Altheimer city,Jefferson County,657,34.327434,-91.847282
AR,Altus city,Franklin County,675,35.44676,-93.764388
AR,Amagon town,Jackson County,65,35.563173,-91.109415
AR,Amity city,Clark County,676,34.26619,-93.463423
AR,Anthonyville town,Crittenden County,130,35.039831,-90.340328
AR,Antoine town,Pike County,114,34.034536,-93.421361
AR,Arkadelphia city,Clark County,10255,34.12738,-93.070851
AR,Arkansas City city,Desha County,349,33.608876,-91.204896
AR,Ash Flat city,Sharp County,1175,36.236559,-91.606512
AR,Ashdown city,Little River County,4162,33.674529,-94.126627
AR,Atkins city,Pope County,2884,35.240863,-92.949643
AR,Aubrey town,Lee County,99,34.719817,-90.897981
AR,Augusta city,Woodruff County,1892,35.28655,-91.36086
AR,Austin city,Lonoke County,4027,35.005912,-91.989609
AR,Avoca town,Benton County,482,36.394697,-94.06577
AR,Bald Knob city,White County,2513,35.312539,-91.571253
AR,Banks town,Bradley County,81,33.575796,-92.267101
AR,Barling city,Sebastian County,5215,35.331286,-94.275195
AR,Bassett town,Mississippi County,117,35.535577,-90.129434
AR,Batesville city,Independence County,11515,35.768572,-91.622652
AR,Bauxite town,Saline County,644,34.557736,-92.50209
AR,Bay city,Craighead County,1821,35.746057,-90.552143
AR,Bearden city,Ouachita County,739,33.727651,-92.618678
AR,Beaver town,Carroll County,67,36.473994,-93.777335
AR,Beebe city,White County,8871,35.072433,-91.901059
AR,Beedeville town,Jackson County,83,35.429169,-91.110738
AR,Bella Vista city,Benton County,32368,36.466641,-94.266317
AR,Bellefonte town,Boone County,426,36.199864,-93.047039
AR,Belleville city,Yell County,308,35.09153,-93.445774
AR,Ben Lomond town,Sevier County,136,33.829113,-94.123319
AR,Benton city,Saline County,37558,34.577424,-92.572583
AR,Bentonville city,Benton County,59471,36.352662,-94.231181
AR,Bergman town,Boone County,440,36.312786,-93.011221
AR,Berryville city,Carroll County,5754,36.371028,-93.570387
AR,Big Flat town,Baxter County,89,36.003394,-92.41022
AR,Bigelow town,Perry County,358,34.997795,-92.631175
AR,Biggers town,Randolph County,308,36.331361,-90.800701
AR,Birdsong town,Mississippi County,29,35.461161,-90.259761
AR,Black Oak town,Craighead County,226,35.836485,-90.367568
AR,Black Rock city,Lawrence County,608,36.106237,-91.10748
AR,Black Springs town,Montgomery County,94,34.455977,-93.713115
AR,Blevins city,Hempstead County,277,33.871251,-93.578187
AR,Blue Eye town,Carroll County,44,36.496667,-93.39771
AR,Blue Mountain town,Logan County,90,35.131796,-93.716666
AR,Bluff City town,Nevada County,113,33.735118,-93.124564
AR,Blytheville city,Mississippi County,12594,35.934066,-89.905133
AR,Bodcaw town,Nevada County,118,33.56364,-93.393036
AR,Bonanza city,Sebastian County,608,35.231794,-94.416133
AR,Bono city,Craighead County,2780,35.911102,-90.800821
AR,Booneville city,Logan County,3820,35.139329,-93.9175
AR,Bradford city,White County,679,35.422004,-91.455232
AR,Bradley city,Lafayette County,394,33.100106,-93.656895
AR,Branch city,Franklin County,305,35.308303,-93.95537
AR,Briarcliff city,Baxter County,247,36.271968,-92.28209
AR,Brinkley city,Monroe County,2574,34.889781,-91.189819
AR,Brookland city,Craighead County,4556,35.897051,-90.571657
AR,Bryant city,Saline County,21877,34.615059,-92.491338
AR,Buckner city,Lafayette County,156,33.35727,-93.435556
AR,Bull Shoals city,Marion County,1934,36.37357,-92.591504
AR,Burdette town,Mississippi County,134,35.815273,-89.946421
AR,Cabot city,Lonoke County,27190,34.975106,-92.028288
AR,Caddo Valley town,Clark County,590,34.180746,-93.084597
AR,Caldwell town,St. Francis County,429,35.074794,-90.809455
AR,Cale town,Nevada County,75,33.627888,-93.232797
AR,Calico Rock city,Izard County,1945,36.121965,-92.125913
AR,Calion city,Union County,410,33.328406,-92.540187
AR,Camden city,Ouachita County,10165,33.567672,-92.849064
AR,Cammack Village city,Pulaski County,754,34.7808,-92.344976
AR,Campbell Station city,Jackson County,227,35.667799,-91.253754
AR,Caraway city,Craighead County,1097,35.760222,-90.322081
AR,Carlisle city,Lonoke County,2014,34.795425,-91.740494
AR,Carthage city,Dallas County,210,34.072605,-92.555312
AR,Casa town,Perry County,127,35.024966,-93.045507
AR,Cash town,Craighead County,277,35.801157,-90.931648
AR,Caulksville town,Logan County,156,35.301849,-93.867806
AR,Cave City city,Sharp County,1994,35.948169,-91.54675
AR,Cave Springs city,Benton County,6081,36.26843,-94.219503
AR,Cedarville city,Crawford County,1438,35.58397,-94.361897
AR,Centerton city,Benton County,23953,36.355148,-94.297692
AR,Central City town,Sebastian County,466,35.336381,-94.238042
AR,Charleston city,Franklin County,2690,35.294515,-94.04835
AR,Cherokee Village city,Sharp County,4936,36.291321,-91.569368
AR,Cherry Valley city,Cross County,567,35.402762,-90.753617
AR,Chester town,Crawford County,149,35.677772,-94.177828
AR,Chidester city,Ouachita County,242,33.701947,-93.023799
AR,Clarendon city,Monroe County,1462,34.692974,-91.306292
AR,Clarkedale city,Crittenden County,328,35.297028,-90.21025
AR,Clarksville city,Johnson County,9600,35.453918,-93.481558
AR,Clinton city,Van Buren County,2524,35.578981,-92.455735
AR,Coal Hill city,Johnson County,811,35.436892,-93.665193
AR,Colt city,St. Francis County,284,35.132897,-90.812933
AR,Concord town,Cleburne County,193,35.66633,-91.860623
AR,Conway city,Faulkner County,69580,35.074404,-92.467004
AR,Corinth town,Yell County,45,35.069508,-93.420089
AR,Corning city,Clay County,3118,36.413682,-90.583609
AR,Cotter city,Baxter County,944,36.281898,-92.520821
AR,Cotton Plant city,Woodruff County,499,35.005918,-91.25205
AR,Cove town,Polk County,326,34.438983,-94.422321
AR,Coy town,Lonoke County,85,34.540484,-91.871295
AR,Crawfordsville town,Crittenden County,450,35.226672,-90.324168
AR,Crossett city,Ashley County,4578,33.122819,-91.958081
AR,Cushman city,Independence County,446,35.865844,-91.778081
AR,Daisy town,Pike County,85,34.235924,-93.739193
AR,Damascus town,Van Buren County,391,35.367092,-92.410712
AR,Danville city,Yell County,1997,35.052457,-93.391199
AR,Dardanelle city,Yell County,4504,35.226305,-93.165909
AR,Datto town,Clay County,64,36.392471,-90.728499
AR,De Queen city,Sevier County,6019,34.042245,-94.342133
AR,De Valls Bluff city,Prairie County,502,34.785865,-91.461071
AR,DeWitt city,Arkansas County,2893,34.287369,-91.338326
AR,Decatur city,Benton County,1727,36.348527,-94.458044
AR,Delaplaine town,Greene County,67,36.230393,-90.725646
AR,Delight city,Pike County,286,34.02953,-93.506555
AR,Dell town,Mississippi County,184,35.857166,-90.034076
AR,Denning town,Franklin County,205,35.425153,-93.756758
AR,Dermott city,Chicot County,2497,33.526206,-91.432296
AR,Des Arc city,Prairie County,1845,34.978433,-91.506835
AR,Diamond City city,Boone County,822,36.457609,-92.910989
AR,Diaz city,Jackson County,1220,35.648773,-91.258933
AR,Dierks city,Howard County,894,34.119961,-94.017283
AR,Donaldson town,Hot Spring County,276,34.234976,-92.919517
AR,Dover city,Pope County,1351,35.390981,-93.114241
AR,Dumas city,Desha County,3662,33.883372,-91.485632
AR,Dyer city,Crawford County,781,35.494367,-94.138805
AR,Dyess town,Mississippi County,322,35.589338,-90.213293
AR,Earle city,Crittenden County,1768,35.273379,-90.464304
AR,East Camden town,Ouachita County,766,33.608421,-92.744966
AR,Edmondson town,Crittenden County,239,35.105035,-90.305452
AR,Egypt town,Craighead County,109,35.867775,-90.945834
AR,El Dorado city,Union County,16869,33.218982,-92.664071
AR,Elaine city,Phillips County,456,34.308603,-90.853349
AR,Elkins city,Washington County,3889,36.017217,-94.023497
AR,Elm Springs city,Washington County,2847,36.206224,-94.237904
AR,Emerson town,Columbia County,286,33.097328,-93.195976
AR,Emmet city,Nevada County,401,33.722539,-93.466156
AR,England city,Lonoke County,2441,34.545431,-91.967442
AR,Enola town,Faulkner County,322,35.195907,-92.206581
AR,Etowah town,Mississippi County,241,35.715758,-90.230682
AR,Eudora city,Chicot County,1601,33.118866,-91.264033
AR,Eureka Springs city,Carroll County,2190,36.410774,-93.744904
AR,Evening Shade city,Sharp County,430,36.069933,-91.621881
AR,Everton town,Boone County,104,36.15414,-92.909538
AR,Fairfield Bay city,Van Buren County,2165,35.601101,-92.266208
AR,Fargo town,Monroe County,57,34.953995,-91.179744
AR,Farmington city,Washington County,9761,36.036581,-94.252466
AR,Fayetteville city,Washington County,101680,36.071455,-94.166564
AR,Felsenthal town,Union County,85,33.060826,-92.148961
AR,Fifty-Six city,Stone County,160,35.96351,-92.233355
AR,Fisher city,Poinsett County,173,35.491424,-90.972494
AR,Flippin city,Marion County,1331,36.27732,-92.59353
AR,Fordyce city,Dallas County,3225,33.818236,-92.416972
AR,Foreman city,Little River County,950,33.719494,-94.397668
AR,Forrest City city,St. Francis County,12490,35.013599,-90.793207
AR,Fort Smith city,Sebastian County,89770,35.349276,-94.370883
AR,Fouke city,Miller County,813,33.262235,-93.88523
AR,Fountain Hill town,Ashley County,106,33.357545,-91.851141
AR,Fountain Lake town,Garland County,474,34.609848,-92.919774
AR,Fourche town,Perry County,57,34.993128,-92.618944
AR,Franklin town,Izard County,198,36.1727,-91.769724
AR,Fredonia (Biscoe) town,Prairie County,297,34.81937,-91.41016
AR,Friendship town,Hot Spring County,159,34.224344,-93.00366
AR,Fulton town,Hempstead County,111,33.612565,-93.813795
AR,Garfield town,Benton County,610,36.455428,-93.975782
AR,Garland town,Miller County,196,33.360958,-93.71417
AR,Garner town,White County,214,35.142496,-91.779184
AR,Gassville city,Baxter County,2223,36.284949,-92.48683
AR,Gateway town,Benton County,444,36.488902,-93.933087
AR,Gentry city,Benton County,4449,36.259553,-94.490876
AR,Georgetown town,White County,84,35.126678,-91.453923
AR,Gilbert town,Searcy County,25,35.990981,-92.716181
AR,Gillett city,Arkansas County,599,34.119172,-91.379133
AR,Gillham town,Sevier County,158,34.168628,-94.312977
AR,Gilmore city,Crittenden County,173,35.413994,-90.29558
AR,Glenwood city,Pike County,2070,34.328314,-93.527255
AR,Goshen town,Washington County,2299,36.102458,-94.001579
AR,Gosnell city,Mississippi County,2733,35.964937,-89.968577
AR,Gould city,Lincoln County,632,33.987194,-91.564038
AR,Grady city,Lincoln County,293,34.072492,-91.697637
AR,Grannis city,Polk County,499,34.240165,-94.321995
AR,Gravette city,Benton County,3750,36.428296,-94.368529
AR,Green Forest city,Carroll County,3160,36.33471,-93.430962
AR,Greenbrier city,Faulkner County,6170,35.228843,-92.383568
AR,Greenland city,Washington County,1220,35.996194,-94.19089
AR,Greenway city,Clay County,171,36.340577,-90.222124
AR,Greenwood city,Sebastian County,9671,35.226857,-94.276391
AR,Greers Ferry city,Cleburne County,842,35.574966,-92.165959
AR,Griffithville town,White County,156,35.123053,-91.64497
AR,Grubbs city,Jackson County,304,35.653999,-91.075464
AR,Guion town,Izard County,72,35.926834,-91.938927
AR,Gum Springs town,Clark County,91,34.063937,-93.095709
AR,Gurdon city,Clark County,1836,33.916032,-93.15391
AR,Guy city,Faulkner County,744,35.327322,-92.336661
AR,Hackett city,Sebastian County,845,35.188027,-94.410341
AR,Hamburg city,Ashley County,2413,33.224755,-91.797247
AR,Hampton city,Calhoun County,1145,33.534763,-92.466607
AR,Hardy city,Sharp County,764,36.319645,-91.481503
AR,Harrell town,Calhoun County,204,33.509869,-92.400061
AR,Harrisburg city,Poinsett County,2209,35.563772,-90.721615
AR,Harrison city,Boone County,13409,36.242592,-93.11765
AR,Hartford city,Sebastian County,497,35.023433,-94.379406
AR,Hartman city,Johnson County,516,35.43525,-93.628245
AR,Haskell city,Saline County,4138,34.509238,-92.641861
AR,Hatfield town,Polk County,343,34.484507,-94.37991
AR,Havana city,Yell County,237,35.109809,-93.526022
AR,Haynes town,Lee County,113,34.890933,-90.792662
AR,Hazen city,Prairie County,1423,34.781368,-91.558058
AR,Heber Springs city,Cleburne County,7239,35.499554,-92.029339
AR,Hector town,Pope County,419,35.462913,-92.97913
AR,Helena-West Helena city,Phillips County,8670,34.531363,-90.620098
AR,Hermitage city,Bradley County,506,33.447372,-92.171455
AR,Hickory Ridge city,Cross County,229,35.402812,-90.994458
AR,Higden town,Cleburne County,118,35.566406,-92.20518
AR,Higginson town,White County,851,35.196813,-91.715175
AR,Highfill town,Benton County,2417,36.274375,-94.323862
AR,Highland city,Sharp County,1041,36.26943,-91.519824
AR,Hindsville town,Madison County,94,36.147719,-93.86488
AR,Holiday Island city,Carroll County,2415,36.484211,-93.736832
AR,Holland city,Faulkner County,595,35.166012,-92.277049
AR,Holly Grove city,Monroe County,443,34.601497,-91.200255
AR,Hope city,Hempstead County,8558,33.668164,-93.588885
AR,Horatio city,Sevier County,897,33.942739,-94.356201
AR,Horseshoe Bend city,Izard County,2543,36.218726,-91.738324
AR,Horseshoe Lake town,Crittenden County,255,34.913753,-90.307722
AR,Hot Springs city,Garland County,37994,34.489442,-93.050254
AR,Houston town,Perry County,148,35.034879,-92.694525
AR,Hoxie city,Lawrence County,2609,36.036041,-90.973588
AR,Hughes city,St. Francis County,992,34.948109,-90.471372
AR,Humnoke city,Lonoke County,213,34.542242,-91.759656
AR,Humphrey city,Arkansas County,445,34.42237,-91.702454
AR,Hunter town,Woodruff County,103,35.054558,-91.122856
AR,Huntington city,Sebastian County,489,35.08171,-94.266319
AR,Huntsville city,Madison County,3378,36.098656,-93.733244
AR,Huttig city,Union County,431,33.04032,-92.179678
AR,Imboden town,Lawrence County,641,36.199696,-91.177386
AR,Jacksonport town,Jackson County,148,35.642177,-91.307914
AR,Jacksonville city,Pulaski County,29094,34.880512,-92.13059
AR,Jasper city,Newton County,521,36.012102,-93.1875
AR,Jennette town,Crittenden County,117,35.158127,-90.418765
AR,Jericho town,Crittenden County,99,35.287677,-90.230466
AR,Johnson city,Washington County,3672,36.133854,-94.174269
AR,Joiner city,Mississippi County,473,35.50739,-90.150706
AR,Jonesboro city,Craighead County,80650,35.819755,-90.679033
AR,Judsonia city,White County,1881,35.276431,-91.641614
AR,Junction City city,Union County,480,33.022091,-92.723616
AR,Keiser city,Mississippi County,719,35.674006,-90.096016
AR,Kensett city,White County,1404,35.2352,-91.671256
AR,Keo town,Lonoke County,203,34.609287,-92.011566
AR,Kibler city,Crawford County,1034,35.425237,-94.236145
AR,Kingsland city,Cleveland County,336,33.857975,-92.297789
AR,Knobel city,Clay County,144,36.319986,-90.602266
AR,Knoxville town,Johnson County,662,35.377537,-93.361839
AR,LaGrange town,Lee County,46,34.655757,-90.734742
AR,Lafe town,Greene County,417,36.209178,-90.504292
AR,Lake City city,Craighead County,2628,35.81937,-90.453905
AR,Lake View city,Phillips County,296,34.42116,-90.813314
AR,Lake Village city,Chicot County,1912,33.32918,-91.284794
AR,Lakeview city,Baxter County,786,36.373907,-92.538735
AR,Lamar city,Johnson County,1755,35.444425,-93.394675
AR,Lavaca city,Sebastian County,2514,35.330199,-94.182885
AR,Leachville city,Mississippi County,1924,35.911468,-90.254955
AR,Lead Hill town,Boone County,284,36.413611,-92.907167
AR,Leola town,Grant County,465,34.170087,-92.591412
AR,Lepanto city,Poinsett County,1660,35.608528,-90.332985
AR,Leslie city,Searcy County,374,35.829508,-92.555961
AR,Letona town,White County,237,35.363502,-91.829547
AR,Lewisville city,Lafayette County,876,33.360132,-93.583971
AR,Lexa town,Phillips County,187,34.598248,-90.751887
AR,Lincoln city,Washington County,2355,35.948834,-94.417468
AR,Little Flock city,Benton County,3037,36.383335,-94.137265
AR,Little Rock city,Pulaski County,203842,34.725393,-92.358556
AR,Lockesburg city,Sevier County,594,33.972871,-94.179584
AR,London city,Pope County,1036,35.327616,-93.243466
AR,Lonoke city,Lonoke County,4277,34.790501,-91.907362
AR,Lonsdale town,Garland County,107,34.544967,-92.810563
AR,Louann town,Ouachita County,146,33.391481,-92.792214
AR,Lowell city,Benton County,11466,36.255855,-94.153356
AR,Luxora city,Mississippi County,882,35.757672,-89.92948
AR,Lynn town,Lawrence County,254,36.004263,-91.252
AR,Madison city,St. Francis County,717,35.017993,-90.73115
AR,Magazine city,Logan County,744,35.153901,-93.807851
AR,Magness town,Independence County,225,35.703055,-91.482237
AR,Magnolia city,Columbia County,10769,33.276698,-93.226247
AR,Malvern city,Hot Spring County,11080,34.373579,-92.82125
AR,Mammoth Spring city,Fulton County,942,36.49241,-91.541067
AR,Manila city,Mississippi County,3714,35.884906,-90.165398
AR,Mansfield city,Sebastian County,1052,35.063915,-94.234269
AR,Marianna city,Lee County,3314,34.77363,-90.767501
AR,Marie town,Mississippi County,100,35.612931,-90.082963
AR,Marion city,Crittenden County,13654,35.204246,-90.206715
AR,Marked Tree city,Poinsett County,2202,35.527889,-90.42661
AR,Marmaduke city,Greene County,1238,36.190028,-90.385061
AR,Marshall city,Searcy County,1315,35.908461,-92.646498
AR,Marvell city,Phillips County,755,34.556304,-90.915338
AR,Maumelle city,Pulaski County,19452,34.852344,-92.399995
AR,Mayflower city,Faulkner County,2326,34.966196,-92.426728
AR,Maynard town,Randolph County,376,36.421493,-90.901804
AR,McCaskill town,Hempstead County,56,33.919539,-93.636831
AR,McCrory city,Woodruff County,1499,35.257326,-91.197276
AR,McDougal town,Clay County,130,36.436465,-90.390727
AR,McGehee city,Desha County,3555,33.627794,-91.39501
AR,McNab town,Hempstead County,29,33.660895,-93.832282
AR,McNeil city,Columbia County,373,33.347917,-93.208404
AR,McRae city,White County,611,35.113627,-91.826194
AR,Melbourne city,Izard County,1883,36.063971,-91.88152
AR,Mena city,Polk County,5618,34.580834,-94.237096
AR,Menifee town,Conway County,295,35.149702,-92.55042
AR,Midland town,Sebastian County,225,35.092403,-94.352955
AR,Midway town,Hot Spring County,371,34.249893,-92.973433
AR,Mineral Springs city,Howard County,1060,33.877723,-93.921386
AR,Minturn town,Lawrence County,89,35.976417,-91.027188
AR,Mitchellville city,Desha County,272,33.905333,-91.498398
AR,Monette city,Craighead County,1603,35.893208,-90.344106
AR,Monticello city,Drew County,8175,33.624778,-91.793722
AR,Montrose city,Ashley County,232,33.298925,-91.49644
AR,Moorefield town,Independence County,120,35.767228,-91.570807
AR,Moro town,Lee County,168,34.791976,-90.987984
AR,Morrilton city,Conway County,7083,35.155456,-92.738932
AR,Morrison Bluff town,Logan County,78,35.381952,-93.518854
AR,Mount Ida city,Montgomery County,1005,34.549153,-93.629939
AR,Mount Pleasant town,Izard County,368,35.981423,-91.777383
AR,Mount Vernon town,Faulkner County,146,35.223605,-92.12398
AR,Mountain Home city,Baxter County,13278,36.335118,-92.384039
AR,Mountain Pine city,Garland County,573,34.569642,-93.171493
AR,Mountain View city,Stone County,2931,35.861559,-92.109657
AR,Mountainburg city,Crawford County,529,35.649625,-94.162407
AR,Mulberry city,Crawford County,1616,35.5085,-94.074753
AR,Murfreesboro city,Pike County,1498,34.070312,-93.694073
AR,Nashville city,Howard County,4043,33.941924,-93.851658
AR,Newark city,Independence County,1178,35.70763,-91.4434
AR,Newport city,Jackson County,8089,35.623772,-91.231682
AR,Nimmons town,Clay County,64,36.30625,-90.095055
AR,Norfork city,Baxter County,474,36.209469,-92.277844
AR,Norman town,Montgomery County,309,34.458977,-93.676824
AR,Norphlet city,Union County,727,33.319889,-92.662009
AR,North Little Rock city,Pulaski County,64531,34.781752,-92.235057
AR,O'Kean town,Randolph County,196,36.171462,-90.818348
AR,Oak Grove Heights town,Greene County,1149,36.126432,-90.503435
AR,Oak Grove town,Carroll County,387,36.463958,-93.430143
AR,Oakhaven town,Hempstead County,66,33.729396,-93.620783
AR,Oden town,Montgomery County,185,34.623149,-93.783646
AR,Ogden city,Little River County,126,33.585869,-94.046917
AR,Oil Trough town,Independence County,223,35.629162,-91.461229
AR,Okolona town,Clark County,98,34.000478,-93.337624
AR,Ola city,Yell County,920,35.031448,-93.224035
AR,Omaha town,Boone County,128,36.461647,-93.189964
AR,Oppelo city,Conway County,747,35.100558,-92.773566
AR,Osceola city,Mississippi County,6610,35.694195,-89.993421
AR,Oxford city,Izard County,601,36.20903,-91.918268
AR,Ozan town,Hempstead County,49,33.846611,-93.720822
AR,Ozark city,Franklin County,3590,35.501858,-93.848378
AR,Palestine city,St. Francis County,480,34.970307,-90.908225
AR,Pangburn city,White County,498,35.426108,-91.839411
AR,Paragould city,Greene County,30520,36.052289,-90.510464
AR,Paris city,Logan County,3302,35.290756,-93.734228
AR,Parkdale city,Ashley County,170,33.121215,-91.546399
AR,Parkin city,Cross County,784,35.261175,-90.553508
AR,Patmos town,Hempstead County,55,33.511369,-93.566956
AR,Patterson city,Woodruff County,294,35.258973,-91.234957
AR,Pea Ridge city,Benton County,8680,36.452846,-94.125942
AR,Peach Orchard city,Clay County,104,36.281229,-90.660774
AR,Perla town,Hot Spring County,258,34.364755,-92.776228
AR,Perry town,Perry County,266,35.046221,-92.79441
AR,Perrytown town,Hempstead County,225,33.697141,-93.532407
AR,Perryville city,Perry County,1401,35.012,-92.802938
AR,Piggott city,Clay County,3538,36.387191,-90.198944
AR,Pindall town,Searcy County,101,36.063663,-92.862158
AR,Pine Bluff city,Jefferson County,39123,34.211591,-92.017555
AR,Pineville town,Izard County,158,36.161145,-92.106471
AR,Plainview city,Yell County,460,34.989874,-93.297948
AR,Pleasant Plains town,Independence County,350,35.55453,-91.627246
AR,Plumerville city,Conway County,740,35.159377,-92.643059
AR,Pocahontas city,Randolph County,7601,36.263366,-90.971224
AR,Pollard city,Clay County,189,36.429561,-90.267129
AR,Portia town,Lawrence County,420,36.084865,-91.071044
AR,Portland city,Ashley County,311,33.237935,-91.510945
AR,Pottsville city,Pope County,3285,35.230606,-93.060839
AR,Powhatan town,Lawrence County,101,36.087312,-91.123884
AR,Poyen town,Grant County,265,34.324169,-92.641976
AR,Prairie Grove city,Washington County,8186,35.986113,-94.303383
AR,Prattsville town,Grant County,295,34.318495,-92.543146
AR,Prescott city,Nevada County,3011,33.80432,-93.391207
AR,Pyatt town,Marion County,191,36.250744,-92.846637
AR,Quitman city,Cleburne County,700,35.381723,-92.214724
AR,Ratcliff city,Logan County,166,35.306946,-93.888636
AR,Ravenden Springs town,Randolph County,120,36.312705,-91.223265
AR,Ravenden town,Lawrence County,423,36.243201,-91.251307
AR,Rector city,Clay County,1824,36.264158,-90.293518
AR,Redfield city,Jefferson County,1490,34.439337,-92.188484
AR,Reed town,Desha County,118,33.701672,-91.445758
AR,Reyno city,Randolph County,395,36.360899,-90.758993
AR,Rison city,Cleveland County,939,33.959951,-92.193648
AR,Rockport city,Hot Spring County,680,34.406892,-92.80157
AR,Roe town,Monroe County,67,34.631101,-91.385963
AR,Rogers city,Benton County,74035,36.318085,-94.152287
AR,Rondo town,Lee County,152,34.657447,-90.820842
AR,Rose Bud town,White County,497,35.321183,-92.076515
AR,Rosston town,Nevada County,269,33.588019,-93.286934
AR,Rudy town,Crawford County,130,35.527455,-94.240384
AR,Russell town,White County,183,35.362126,-91.509947
AR,Russellville city,Pope County,29338,35.276328,-93.138743
AR,Salem city,Fulton County,1609,36.370416,-91.821706
AR,Salesville city,Baxter County,512,36.23906,-92.277495
AR,Scranton city,Logan County,249,35.36043,-93.539724
AR,Searcy city,White County,23813,35.241134,-91.735223
AR,Sedgwick town,Lawrence County,159,35.974161,-90.862149
AR,Shannon Hills city,Saline County,4685,34.617586,-92.402176
AR,Sheridan city,Grant County,5202,34.321575,-92.443067
AR,Sherrill town,Jefferson County,52,34.385065,-91.951808
AR,Sherwood city,Pulaski County,33118,34.852029,-92.204483
AR,Shirley town,Van Buren County,249,35.643751,-92.313519
AR,Sidney town,Sharp County,197,36.004421,-91.658289
AR,Siloam Springs city,Benton County,19336,36.184612,-94.531517
AR,Smackover city,Union County,1581,33.363589,-92.731425
AR,Smithville town,Lawrence County,85,36.079921,-91.302675
AR,South Lead Hill town,Boone County,86,36.395614,-92.906209
AR,Southside city,Independence County,4271,35.720183,-91.630162
AR,Sparkman city,Dallas County,339,33.917168,-92.849997
AR,Springdale city,Washington County,88224,36.191438,-94.155062
AR,Springtown town,Benton County,90,36.260285,-94.423812
AR,St. Charles town,Arkansas County,194,34.372999,-91.137446
AR,St. Francis city,Clay County,209,36.454872,-90.142179
AR,St. Joe town,Searcy County,129,36.026028,-92.801276
AR,St. Paul town,Madison County,124,35.826791,-93.767285
AR,Stamps city,Lafayette County,1219,33.354959,-93.497879
AR,Star City city,Lincoln County,2092,33.94078,-91.839962
AR,Stephens city,Ouachita County,746,33.420917,-93.06959
AR,Strawberry town,Lawrence County,263,35.966523,-91.321102
AR,Strong city,Union County,400,33.107883,-92.355573
AR,Stuttgart city,Arkansas County,7788,34.495233,-91.548638
AR,Subiaco town,Logan County,408,35.297367,-93.639439
AR,Success town,Clay County,95,36.454501,-90.722625
AR,Sulphur Rock town,Independence County,615,35.751613,-91.500264
AR,Sulphur Springs city,Benton County,468,36.484076,-94.460095
AR,Summit city,Marion County,535,36.252203,-92.688287
AR,Sunset town,Crittenden County,169,35.223979,-90.205642
AR,Swifton city,Jackson County,720,35.824376,-91.129429
AR,Taylor city,Columbia County,562,33.099802,-93.461843
AR,Texarkana city,Miller County,29223,33.436339,-93.987118
AR,Thornton city,Calhoun County,329,33.774876,-92.487651
AR,Tillar city,Drew County,161,33.711,-91.451812
AR,Tinsman town,Calhoun County,51,33.629183,-92.353295
AR,Tollette town,Howard County,187,33.818095,-93.896899
AR,Tontitown city,Washington County,7364,36.167388,-94.242128
AR,Traskwood city,Saline County,511,34.452451,-92.666438
AR,Trumann city,Poinsett County,7400,35.676941,-90.526029
AR,Tuckerman city,Jackson County,1683,35.725641,-91.202079
AR,Tull town,Grant County,490,34.441214,-92.585881
AR,Tupelo town,Jackson County,71,35.390332,-91.229904
AR,Turrell city,Crittenden County,500,35.374609,-90.270384
AR,Twin Groves town,Faulkner County,317,35.329207,-92.405668
AR,Tyronza city,Poinsett County,684,35.486771,-90.356008
AR,Ulm town,Prairie County,178,34.576229,-91.461691
AR,Valley Springs town,Boone County,190,36.153768,-92.989698
AR,Van Buren city,Crawford County,24138,35.451176,-94.354003
AR,Vandervoort town,Polk County,113,34.379781,-94.364919
AR,Victoria town,Mississippi County,18,35.757424,-90.060145
AR,Vilonia city,Faulkner County,4568,35.078702,-92.215387
AR,Viola town,Fulton County,371,36.399237,-91.986977
AR,Wabbaseka town,Jefferson County,174,34.359805,-91.793777
AR,Waldenburg town,Poinsett County,53,35.565255,-90.934561
AR,Waldo city,Columbia County,1119,33.351923,-93.295393
AR,Waldron city,Scott County,3361,34.903252,-94.094839
AR,Walnut Ridge city,Lawrence County,5532,36.084782,-90.946837
AR,Ward city,Lonoke County,6840,35.013782,-91.957727
AR,Warren city,Bradley County,5211,33.611829,-92.067718
AR,Washington city,Hempstead County,90,33.772882,-93.683293
AR,Watson city,Desha County,169,33.89375,-91.257061
AR,Weiner city,Poinsett County,621,35.619714,-90.905303
AR,Weldon town,Jackson County,58,35.447994,-91.231606
AR,West Fork city,Washington County,2353,35.934924,-94.18111
AR,West Memphis city,Crittenden County,23825,35.149554,-90.199266
AR,West Point town,White County,171,35.203307,-91.609897
AR,Western Grove town,Newton County,349,36.101118,-92.954554
AR,Wheatley city,St. Francis County,267,34.921186,-91.106255
AR,Whelen Springs town,Clark County,44,33.833144,-93.126029
AR,White Hall city,Jefferson County,5437,34.275179,-92.100649
AR,Wickes town,Polk County,653,34.299736,-94.327252
AR,Widener town,St. Francis County,203,35.023498,-90.681934
AR,Wiederkehr Village city,Franklin County,47,35.477705,-93.764725
AR,Williford town,Sharp County,83,36.251832,-91.360457
AR,Willisville town,Nevada County,146,33.516119,-93.293665
AR,Wilmar city,Drew County,383,33.626384,-91.929342
AR,Wilmot city,Ashley County,395,33.056963,-91.577858
AR,Wilson city,Mississippi County,719,35.565961,-90.0418
AR,Wilton city,Little River County,287,33.738728,-94.147987
AR,Winchester town,Drew County,135,33.774074,-91.4737
AR,Winslow city,Washington County,363,35.801542,-94.131779
AR,Winthrop city,Little River County,113,33.830837,-94.354222
AR,Wooster town,Faulkner County,1058,35.199919,-92.450204
AR,Wrightsville city,Pulaski County,1602,34.620714,-92.219607
AR,Wynne city,Cross County,8011,35.235224,-90.788513
AR,Yellville city,Marion County,1164,36.228846,-92.686123
AR,Zinc town,Boone County,99,36.283959,-92.914422
AZ,Apache Junction city,Pinal County,41153,33.382766,-111.540509
AZ,Avondale city,Maricopa County,93545,33.313236,-112.328928
AZ,Benson city,Cochise County,5337,31.914497,-110.328552
AZ,Bisbee city,Cochise County,4994,31.398036,-109.931834
AZ,Buckeye city,Maricopa County,108909,33.431573,-112.641626
AZ,Bullhead City city,Mohave County,43302,35.127371,-114.55599
AZ,Camp Verde town,Yavapai County,12489,34.569405,-111.857014
AZ,Carefree town,Maricopa County,3642,33.823214,-111.913271
AZ,Casa Grande city,Pinal County,63743,32.906922,-111.763486
AZ,Cave Creek town,Maricopa County,5152,33.836219,-111.982084
AZ,Chandler city,Maricopa County,280167,33.282765,-111.851819
AZ,Chino Valley town,Yavapai County,13815,34.73989,-112.40606
AZ,Clarkdale town,Yavapai County,4904,34.747979,-112.058699
AZ,Clifton town,Greenlee County,3780,33.02957,-109.284039
AZ,Colorado City town,Mohave County,2734,36.970109,-112.985312
AZ,Coolidge city,Pinal County,18293,32.933616,-111.523585
AZ,Cottonwood city,Yavapai County,13124,34.750834,-111.984004
AZ,Dewey-Humboldt town,Yavapai County,4540,34.517396,-112.24965
AZ,Douglas city,Cochise County,15638,31.399274,-109.541292
AZ,Duncan town,Greenlee County,670,32.749981,-109.0884
AZ,Eagar town,Apache County,4437,34.10678,-109.301221
AZ,El Mirage city,Maricopa County,35850,33.590224,-112.327102
AZ,Eloy city,Pinal County,18528,32.741255,-111.594015
AZ,Flagstaff city,Coconino County,76586,35.185212,-111.620698
AZ,Florence town,Pinal County,24291,33.069367,-111.413992
AZ,Fountain Hills town,Maricopa County,23611,33.607799,-111.738398
AZ,Fredonia town,Coconino County,1302,36.961626,-112.516363
AZ,Gila Bend town,Maricopa County,1854,32.966242,-112.715465
AZ,Gilbert town,Maricopa County,275411,33.310345,-111.743121
AZ,Glendale city,Maricopa County,253855,33.533111,-112.189901
AZ,Globe city,Gila County,7179,33.393642,-110.741106
AZ,Goodyear city,Maricopa County,111805,33.254031,-112.366472
AZ,Guadalupe town,Maricopa County,5217,33.366453,-111.963156
AZ,Hayden town,Gila County,516,32.99495,-110.779898
AZ,Holbrook city,Navajo County,4833,34.904624,-110.16721
AZ,Huachuca City town,Cochise County,1600,31.630804,-110.342193
AZ,Jerome town,Yavapai County,460,34.747088,-112.107515
AZ,Kearny town,Pinal County,1817,33.056392,-110.907091
AZ,Kingman city,Mohave County,35334,35.216992,-114.010529
AZ,Lake Havasu City city,Mohave County,59257,34.499809,-114.310943
AZ,Litchfield Park city,Maricopa County,6884,33.501761,-112.35947
AZ,Mammoth town,Pinal County,1133,32.68517,-110.729286
AZ,Marana town,Pima County,58430,32.465939,-111.135401
AZ,Maricopa city,Pinal County,71022,33.041942,-111.999259
AZ,Mesa city,Maricopa County,511648,33.400626,-111.716487
AZ,Miami town,Gila County,1532,33.395065,-110.872382
AZ,Nogales city,Santa Cruz County,19702,31.361928,-110.93482
AZ,Oro Valley town,Pima County,48311,32.420713,-110.977
AZ,Page city,Coconino County,7320,36.941815,-111.513283
AZ,Paradise Valley town,Maricopa County,12502,33.552157,-111.96133
AZ,Parker town,La Paz County,3400,34.034006,-114.228109
AZ,Patagonia town,Santa Cruz County,789,31.544744,-110.745463
AZ,Payson town,Gila County,16731,34.243841,-111.318964
AZ,Peoria city,Maricopa County,198750,33.786186,-112.308042
AZ,Phoenix city,Maricopa County,1650070,33.572154,-112.090132
AZ,Pima town,Graham County,3036,32.891886,-109.844268
AZ,Pinetop-Lakeside town,Navajo County,4191,34.148424,-109.965998
AZ,Prescott Valley town,Yavapai County,50045,34.59793,-112.318497
AZ,Prescott city,Yavapai County,47757,34.592241,-112.446733
AZ,Quartzsite town,La Paz County,2389,33.667507,-114.217041
AZ,Queen Creek town,Maricopa County,76570,33.239425,-111.613319
AZ,Safford city,Graham County,10270,32.833298,-109.697418
AZ,Sahuarita town,Pima County,36356,31.932238,-110.965395
AZ,San Luis city,Yuma County,37966,32.485678,-114.721947
AZ,Scottsdale city,Maricopa County,244394,33.684272,-111.861448
AZ,Sedona city,Yavapai County,9819,34.858517,-111.793057
AZ,Show Low city,Navajo County,12192,34.265053,-110.038321
AZ,Sierra Vista city,Cochise County,44431,31.56541,-110.314508
AZ,Snowflake town,Navajo County,6670,34.521459,-110.091182
AZ,Somerton city,Yuma County,14594,32.601816,-114.696344
AZ,South Tucson city,Pima County,4521,32.195474,-110.969154
AZ,Springerville town,Apache County,1727,34.171921,-109.306892
AZ,St. Johns city,Apache County,3362,34.500368,-109.37691
AZ,Star Valley town,Gila County,2545,34.254685,-111.220709
AZ,Superior town,Pinal County,2571,33.27162,-111.124161
AZ,Surprise city,Maricopa County,158285,33.670801,-112.452546
AZ,Taylor town,Navajo County,4272,34.442748,-110.098534
AZ,Tempe city,Maricopa County,189834,33.388414,-111.931782
AZ,Thatcher town,Graham County,5486,32.812708,-109.766516
AZ,Tolleson city,Maricopa County,7173,33.44837,-112.256012
AZ,Tombstone city,Cochise County,1312,31.720772,-110.076701
AZ,Tucson city,Pima County,547239,32.153036,-110.870773
AZ,Tusayan town,Coconino County,583,35.954961,-112.120195
AZ,Wellton town,Yuma County,2572,32.640144,-114.215206
AZ,Wickenburg town,Maricopa County,8123,33.994799,-112.758908
AZ,Willcox city,Cochise County,3202,32.251804,-109.835698
AZ,Williams city,Coconino County,3463,35.24664,-112.183296
AZ,Winkelman town,Gila County,294,32.981677,-110.761687
AZ,Winslow city,Navajo County,8517,35.024236,-110.709331
AZ,Youngtown town,Maricopa County,6919,33.584969,-112.304916
AZ,Yuma city,Yuma County,100858,32.516286,-114.521782
CA,Adelanto city,San Bernardino County,38187,34.580902,-117.439458
CA,Agoura Hills city,Los Angeles County,19474,34.148942,-118.76393
CA,Alameda city,Alameda County,75353,37.741911,-122.259914
CA,Albany city,Alameda County,19097,37.89065,-122.318116
CA,Alhambra city,Los Angeles County,79776,34.083571,-118.136444
CA,Aliso Viejo city,Orange County,50263,33.57921,-117.728898
CA,Alturas city,Modoc County,2657,41.489136,-120.551286
CA,Amador City city,Amador County,204,38.418995,-120.82326
CA,American Canyon city,Napa County,21347,38.179033,-122.259602
CA,Anaheim city,Orange County,340512,33.855502,-117.758657
CA,Anderson city,Shasta County,11210,40.449755,-122.29507
CA,Angels city,Calaveras County,3752,38.071037,-120.551729
CA,Antioch city,Contra Costa County,117096,37.978336,-121.796064
CA,Apple Valley town,San Bernardino County,75036,34.533376,-117.210358
CA,Arcadia city,Los Angeles County,54157,34.132689,-118.036347
CA,Arcata city,Humboldt County,19012,40.862291,-124.074967
CA,Arroyo Grande city,San Luis Obispo County,18243,35.124149,-120.584533
CA,Artesia city,Los Angeles County,15597,33.867591,-118.080634
CA,Arvin city,Kern County,19364,35.194361,-118.830569
CA,Atascadero city,San Luis Obispo County,29700,35.485718,-120.687942
CA,Atherton town,San Mateo County,6823,37.457072,-122.201058
CA,Atwater city,Merced County,32052,37.354049,-120.597177
CA,Auburn city,Placer County,13658,38.895075,-121.076739
CA,Avalon city,Los Angeles County,3261,33.343335,-118.317615
CA,Avenal city,Kings County,14075,36.031107,-120.116174
CA,Azusa city,Los Angeles County,48272,34.138524,-117.912253
CA,Bakersfield city,Kern County,413381,35.353171,-119.037919
CA,Baldwin Park city,Los Angeles County,68806,34.082824,-117.971286
CA,Banning city,Riverside County,31680,33.945903,-116.899044
CA,Barstow city,San Bernardino County,24964,34.866987,-117.043035
CA,Beaumont city,Riverside County,58463,33.876722,-116.953009
CA,Bell Gardens city,Los Angeles County,37467,33.964379,-118.154437
CA,Bell city,Los Angeles County,31864,33.979704,-118.179249
CA,Bellflower city,Los Angeles County,75122,33.887821,-118.12725
CA,Belmont city,San Mateo County,26622,37.514398,-122.294475
CA,Belvedere city,Marin County,2050,37.873567,-122.470995
CA,Benicia city,Solano County,26429,38.072733,-122.155169
CA,Berkeley city,Alameda County,118962,37.865673,-122.298725
CA,Beverly Hills city,Los Angeles County,30974,34.07923,-118.402437
CA,Big Bear Lake city,San Bernardino County,5007,34.242888,-116.893893
CA,Biggs city,Butte County,1921,39.410187,-121.713322
CA,Bishop city,Inyo County,3742,37.366381,-118.395808
CA,Blue Lake city,Humboldt County,1172,40.880993,-123.994912
CA,Blythe city,Riverside County,18045,33.65352,-114.621823
CA,Bradbury city,Los Angeles County,892,34.153159,-117.968818
CA,Brawley city,Imperial County,27849,32.978454,-115.528569
CA,Brea city,Orange County,48479,33.925178,-117.865111
CA,Brentwood city,Contra Costa County,65126,37.935578,-121.71897
CA,Brisbane city,San Mateo County,4577,37.67575,-122.383302
CA,Buellton city,Santa Barbara County,4990,34.615497,-120.194237
CA,Buena Park city,Orange County,81958,33.857353,-118.007373
CA,Burbank city,Los Angeles County,102755,34.190079,-118.326405
CA,Burlingame city,San Mateo County,29910,37.589952,-122.363342
CA,Calabasas city,Los Angeles County,22227,34.134252,-118.666455
CA,Calexico city,Imperial County,38224,32.684859,-115.494738
CA,California City city,Kern County,13802,35.14659,-117.869346
CA,Calimesa city,Riverside County,11165,33.987357,-117.054214
CA,Calipatria city,Imperial County,6188,33.168651,-115.485641
CA,Calistoga city,Napa County,5058,38.581408,-122.582696
CA,Camarillo city,Ventura County,69514,34.221823,-119.032154
CA,Campbell city,Santa Clara County,41700,37.280244,-121.953296
CA,Canyon Lake city,Riverside County,11096,33.688302,-117.263547
CA,Capitola city,Santa Cruz County,9572,36.976083,-121.954012
CA,Carlsbad city,San Diego County,113495,33.129284,-117.284183
CA,Carmel-by-the-Sea city,Monterey County,3104,36.552881,-121.921919
CA,Carpinteria city,Santa Barbara County,12828,34.385234,-119.500759
CA,Carson city,Los Angeles County,91139,33.840367,-118.249574
CA,Cathedral City city,Riverside County,52356,33.835487,-116.463103
CA,Ceres city,Stanislaus County,48397,37.598786,-120.968081
CA,Cerritos city,Los Angeles County,46797,33.867745,-118.069471
CA,Chico city,Butte County,101301,39.758951,-121.81772
CA,Chino Hills city,San Bernardino County,77212,33.942969,-117.725648
CA,Chino city,San Bernardino County,93114,33.978037,-117.657719
CA,Chowchilla city,Madera County,19328,37.116104,-120.241978
CA,Chula Vista city,San Diego County,274333,32.62767,-117.01517
CA,Citrus Heights city,Sacramento County,86239,38.69481,-121.287953
CA,Claremont city,Los Angeles County,35640,34.124925,-117.713923
CA,Clayton city,Contra Costa County,10754,37.940322,-121.930075
CA,Clearlake city,Lake County,16481,38.960045,-122.633232
CA,Cloverdale city,Sonoma County,8825,38.794795,-123.014703
CA,Clovis city,Fresno County,125826,36.828967,-119.684922
CA,Coachella city,Riverside County,43590,33.69038,-116.143128
CA,Coalinga city,Fresno County,17369,36.133056,-120.339029
CA,Colfax city,Placer County,2050,39.093799,-120.953222
CA,Colma town,San Mateo County,1407,37.676697,-122.452821
CA,Colton city,San Bernardino County,53357,34.054525,-117.325029
CA,Colusa city,Colusa County,6527,39.200023,-122.009481
CA,Commerce city,Los Angeles County,11672,33.994523,-118.149952
CA,Compton city,Los Angeles County,90986,33.894047,-118.227469
CA,Concord city,Contra Costa County,122315,37.972184,-122.001587
CA,Corcoran city,Kings County,22044,36.084057,-119.561268
CA,Corning city,Tehama County,8069,39.9282,-122.182009
CA,Corona city,Riverside County,160238,33.861969,-117.565495
CA,Coronado city,San Diego County,18437,32.657625,-117.156539
CA,Corte Madera town,Marin County,9947,37.931846,-122.507738
CA,Costa Mesa city,Orange County,108354,33.665905,-117.912336
CA,Cotati city,Sonoma County,7430,38.328492,-122.710049
CA,Covina city,Los Angeles County,48728,34.090475,-117.882143
CA,Crescent City city,Del Norte County,5611,41.764514,-124.200779
CA,Cudahy city,Los Angeles County,21723,33.964003,-118.182561
CA,Culver City city,Los Angeles County,39041,34.00582,-118.396781
CA,Cupertino city,Santa Clara County,57285,37.3194,-122.044957
CA,Cypress city,Orange County,48782,33.818477,-118.038307
CA,Daly City city,San Mateo County,99833,37.686193,-122.468669
CA,Dana Point city,Orange County,32567,33.475452,-117.693087
CA,Danville town,Contra Costa County,42999,37.812142,-121.969824
CA,Davis city,Yolo County,65832,38.556147,-121.737793
CA,Del Mar city,San Diego County,3867,32.963945,-117.259804
CA,Del Rey Oaks city,Monterey County,1550,36.589699,-121.829527
CA,Delano city,Kern County,51500,35.76643,-119.264221
CA,Desert Hot Springs city,Riverside County,33438,33.957591,-116.542284
CA,Diamond Bar city,Los Angeles County,52041,34.001573,-117.817601
CA,Dinuba city,Tulare County,25863,36.545121,-119.398805
CA,Dixon city,Solano County,19309,38.447512,-121.824223
CA,Dorris city,Siskiyou County,832,41.964965,-121.920387
CA,Dos Palos city,Merced County,5708,36.985424,-120.633845
CA,Downey city,Los Angeles County,108816,33.938237,-118.130856
CA,Duarte city,Los Angeles County,23131,34.160967,-117.950447
CA,Dublin city,Alameda County,69128,37.716137,-121.896229
CA,Dunsmuir city,Siskiyou County,1642,41.231526,-122.270939
CA,East Palo Alto city,San Mateo County,28216,37.46778,-122.13255
CA,Eastvale city,Riverside County,70510,33.963274,-117.582369
CA,El Cajon city,San Diego County,102991,32.801673,-116.960468
CA,El Centro city,Imperial County,43772,32.786351,-115.560206
CA,El Cerrito city,Contra Costa County,25552,37.919574,-122.302519
CA,El Monte city,Los Angeles County,103794,34.074633,-118.029136
CA,El Paso de Robles (Paso Robles) city,San Luis Obispo County,31134,35.628513,-120.650356
CA,El Segundo city,Los Angeles County,16445,33.910367,-118.425079
CA,Elk Grove city,Sacramento County,178444,38.414621,-121.384961
CA,Emeryville city,Alameda County,12732,37.838473,-122.301682
CA,Encinitas city,San Diego County,60841,33.050632,-117.263616
CA,Escalon city,San Joaquin County,7355,37.791336,-120.999643
CA,Escondido city,San Diego County,148122,33.133053,-117.074043
CA,Etna city,Siskiyou County,653,41.458199,-122.895819
CA,Eureka city,Humboldt County,25734,40.797594,-124.154191
CA,Exeter city,Tulare County,10206,36.294137,-119.145953
CA,Fairfax town,Marin County,7417,37.988532,-122.595208
CA,Fairfield city,Solano County,120768,38.26206,-122.032386
CA,Farmersville city,Tulare County,10243,36.304739,-119.208605
CA,Ferndale city,Humboldt County,1389,40.578144,-124.261247
CA,Fillmore city,Ventura County,17190,34.398958,-118.91746
CA,Firebaugh city,Fresno County,8547,36.853745,-120.453746
CA,Folsom city,Sacramento County,84782,38.666597,-121.141635
CA,Fontana city,San Bernardino County,215465,34.109686,-117.462888
CA,Fort Bragg city,Mendocino County,6919,39.439803,-123.801757
CA,Fort Jones city,Siskiyou County,673,41.608452,-122.841066
CA,Fortuna city,Humboldt County,12285,40.587084,-124.142161
CA,Foster City city,San Mateo County,32180,37.56482,-122.250782
CA,Fountain Valley city,Orange County,55468,33.710582,-117.951129
CA,Fowler city,Fresno County,7274,36.62412,-119.674699
CA,Fremont city,Alameda County,226208,37.49446,-121.94115
CA,Fresno city,Fresno County,545716,36.782684,-119.793359
CA,Fullerton city,Orange County,139250,33.885716,-117.928025
CA,Galt city,Sacramento County,25767,38.268458,-121.298952
CA,Garden Grove city,Orange County,168234,33.778782,-117.960472
CA,Gardena city,Los Angeles County,58377,33.894417,-118.307522
CA,Gilroy city,Santa Clara County,58250,37.006407,-121.585321
CA,Glendale city,Los Angeles County,187050,34.181393,-118.24583
CA,Glendora city,Los Angeles County,49934,34.144964,-117.847804
CA,Goleta city,Santa Barbara County,32665,34.435441,-119.858946
CA,Gonzales city,Monterey County,8327,36.505979,-121.442918
CA,Grand Terrace city,San Bernardino County,12939,34.031085,-117.3131
CA,Grass Valley city,Nevada County,14074,39.220305,-121.052654
CA,Greenfield city,Monterey County,20634,36.323977,-121.243699
CA,Gridley city,Butte County,7269,39.362229,-121.69708
CA,Grover Beach city,San Luis Obispo County,12547,35.120888,-120.619664
CA,Guadalupe city,Santa Barbara County,8622,34.964929,-120.573127
CA,Gustine city,Merced County,6099,37.252549,-120.995513
CA,Half Moon Bay city,San Mateo County,11105,37.467319,-122.440485
CA,Hanford city,Kings County,59938,36.327741,-119.65462
CA,Hawaiian Gardens city,Los Angeles County,13396,33.830482,-118.073451
CA,Hawthorne city,Los Angeles County,83364,33.914775,-118.348083
CA,Hayward city,Alameda County,155675,37.626826,-122.104015
CA,Healdsburg city,Sonoma County,11137,38.622526,-122.865133
CA,Hemet city,Riverside County,92368,33.734068,-116.996808
CA,Hercules city,Contra Costa County,26582,38.021427,-122.288929
CA,Hermosa Beach city,Los Angeles County,18641,33.869819,-118.405296
CA,Hesperia city,San Bernardino County,100633,34.397038,-117.315198
CA,Hidden Hills city,Los Angeles County,1685,34.163744,-118.66121
CA,Highland city,San Bernardino County,56202,34.113473,-117.165729
CA,Hillsborough town,San Mateo County,10883,37.557206,-122.358541
CA,Hollister city,San Benito County,44658,36.855599,-121.398598
CA,Holtville city,Imperial County,5555,32.813781,-115.378319
CA,Hughson city,Stanislaus County,7683,37.602135,-120.866004
CA,Huntington Beach city,Orange County,192129,33.698007,-118.003834
CA,Huntington Park city,Los Angeles County,51942,33.979248,-118.217438
CA,Huron city,Fresno County,6377,36.204234,-120.095311
CA,Imperial Beach city,San Diego County,25458,32.56914,-117.114921
CA,Imperial city,Imperial County,21591,32.838801,-115.572012
CA,Indian Wells city,Riverside County,4862,33.699892,-116.32955
CA,Indio city,Riverside County,93057,33.731639,-116.235971
CA,Industry city,Los Angeles County,257,34.026232,-117.940327
CA,Inglewood city,Los Angeles County,102865,33.956068,-118.344274
CA,Ione city,Amador County,5431,38.362862,-120.947685
CA,Irvine city,Orange County,314621,33.678399,-117.771254
CA,Irwindale city,Los Angeles County,1426,34.111855,-117.963614
CA,Isleton city,Sacramento County,777,38.161252,-121.604958
CA,Jackson city,Amador County,5132,38.348488,-120.772822
CA,Jurupa Valley city,Riverside County,107321,34.002591,-117.467612
CA,Kerman city,Fresno County,17238,36.725041,-120.062473
CA,King City city,Monterey County,13917,36.216283,-121.131962
CA,Kingsburg city,Fresno County,13013,36.525193,-119.566565
CA,La Cañada Flintridge city,Los Angeles County,19538,34.20969,-118.200139
CA,La Habra Heights city,Los Angeles County,5368,33.958959,-117.948973
CA,La Habra city,Orange County,60991,33.927927,-117.951554
CA,La Mesa city,San Diego County,60537,32.769495,-117.021923
CA,La Mirada city,Los Angeles County,45505,33.902045,-118.008961
CA,La Palma city,Orange County,15029,33.850616,-118.039565
CA,La Puente city,Los Angeles County,36516,34.032333,-117.95352
CA,La Quinta city,Riverside County,39081,33.646083,-116.275297
CA,La Verne city,Los Angeles County,29898,34.120521,-117.769928
CA,Lafayette city,Contra Costa County,25048,37.891004,-122.119529
CA,Laguna Beach city,Orange County,22332,33.54337,-117.761801
CA,Laguna Hills city,Orange County,30243,33.591216,-117.697621
CA,Laguna Niguel city,Orange County,62899,33.528654,-117.701253
CA,Laguna Woods city,Orange County,16998,33.612058,-117.730319
CA,Lake Elsinore city,Riverside County,73028,33.685956,-117.335404
CA,Lake Forest city,Orange County,85840,33.654946,-117.675848
CA,Lakeport city,Lake County,5135,39.038333,-122.922633
CA,Lakewood city,Los Angeles County,78135,33.847135,-118.121894
CA,Lancaster city,Los Angeles County,166236,34.693558,-118.175305
CA,Larkspur city,Marin County,12589,37.940544,-122.530229
CA,Lathrop city,San Joaquin County,39857,37.808666,-121.317765
CA,Lawndale city,Los Angeles County,30155,33.888435,-118.353143
CA,Lemon Grove city,San Diego County,27569,32.733071,-117.034413
CA,Lemoore city,Kings County,26809,36.294365,-119.798253
CA,Lincoln city,Placer County,54538,38.874464,-121.292886
CA,Lindsay city,Tulare County,12496,36.209096,-119.093259
CA,Live Oak city,Sutter County,9443,39.278802,-121.662439
CA,Livermore city,Alameda County,82908,37.686977,-121.759781
CA,Livingston city,Merced County,14643,37.387281,-120.724943
CA,Lodi city,San Joaquin County,67679,38.12161,-121.290765
CA,Loma Linda city,San Bernardino County,25111,34.042932,-117.248872
CA,Lomita city,Los Angeles County,19782,33.793306,-118.317455
CA,Lompoc city,Santa Barbara County,43045,34.662689,-120.470837
CA,Long Beach city,Los Angeles County,449468,33.780791,-118.16818
CA,Loomis town,Placer County,6779,38.809368,-121.195467
CA,Los Alamitos city,Orange County,11901,33.796911,-118.061244
CA,Los Altos Hills town,Santa Clara County,8189,37.366808,-122.13865
CA,Los Altos city,Santa Clara County,29990,37.368431,-122.09657
CA,Los Angeles city,Los Angeles County,3820914,34.019394,-118.410825
CA,Los Banos city,Merced County,48553,37.063184,-120.840304
CA,Los Gatos town,Santa Clara County,32216,37.229912,-121.956814
CA,Loyalton city,Sierra County,728,39.676855,-120.244811
CA,Lynwood city,Los Angeles County,63234,33.923959,-118.201655
CA,Madera city,Madera County,68079,36.965774,-120.08616
CA,Malibu city,Los Angeles County,10277,34.02586,-118.759643
CA,Mammoth Lakes town,Mono County,7187,37.624435,-118.988432
CA,Manhattan Beach city,Los Angeles County,33369,33.90087,-118.420715
CA,Manteca city,San Joaquin County,91059,37.792839,-121.226076
CA,Maricopa city,Kern County,1009,35.050942,-119.406605
CA,Marina city,Monterey County,22833,36.680256,-121.789368
CA,Martinez city,Contra Costa County,36395,37.998116,-122.114419
CA,Marysville city,Yuba County,12674,39.151535,-121.583374
CA,Maywood city,Los Angeles County,23824,33.988548,-118.187707
CA,McFarland city,Kern County,14049,35.667286,-119.230722
CA,Mendota city,Fresno County,12530,36.757595,-120.380474
CA,Menifee city,Riverside County,113433,33.689858,-117.184383
CA,Menlo Park city,San Mateo County,31690,37.479731,-122.148055
CA,Merced city,Merced County,93692,37.305712,-120.477905
CA,Mill Valley city,Marin County,13792,37.908122,-122.542325
CA,Millbrae city,San Mateo County,22087,37.59897,-122.401991
CA,Milpitas city,Santa Clara County,77321,37.433141,-121.890924
CA,Mission Viejo city,Orange County,90624,33.609335,-117.656471
CA,Modesto city,Stanislaus County,218915,37.637533,-121.003049
CA,Monrovia city,Los Angeles County,36768,34.163984,-117.984646
CA,Montague city,Siskiyou County,1182,41.727088,-122.530511
CA,Montclair city,San Bernardino County,37545,34.071493,-117.69808
CA,Monte Sereno city,Santa Clara County,3459,37.24041,-121.988235
CA,Montebello city,Los Angeles County,60015,34.015444,-118.111012
CA,Monterey Park city,Los Angeles County,57877,34.04838,-118.133165
CA,Monterey city,Monterey County,29116,36.601193,-121.88311
CA,Moorpark city,Ventura County,35543,34.285942,-118.87704
CA,Moraga town,Contra Costa County,16547,37.845693,-122.123217
CA,Moreno Valley city,Riverside County,212392,33.923253,-117.205685
CA,Morgan Hill city,Santa Clara County,44478,37.132495,-121.641891
CA,Morro Bay city,San Luis Obispo County,10589,35.366773,-120.868289
CA,Mount Shasta city,Siskiyou County,3179,41.32088,-122.315481
CA,Mountain View city,Santa Clara County,81785,37.399686,-122.079269
CA,Murrieta city,Riverside County,111878,33.572134,-117.190444
CA,Napa city,Napa County,77492,38.297872,-122.300741
CA,National City city,San Diego County,55236,32.665862,-117.097361
CA,Needles city,San Bernardino County,4824,34.813426,-114.626639
CA,Nevada City city,Nevada County,3224,39.259608,-121.033326
CA,Newark city,Alameda County,46929,37.504253,-122.03191
CA,Newman city,Stanislaus County,12207,37.316128,-121.021424
CA,Newport Beach city,Orange County,82637,33.597332,-117.890352
CA,Norco city,Riverside County,25398,33.925519,-117.551958
CA,Norwalk city,Los Angeles County,98078,33.9076,-118.083453
CA,Novato city,Marin County,51722,38.085087,-122.548272
CA,Oakdale city,Stanislaus County,23045,37.761666,-120.846434
CA,Oakland city,Alameda County,436504,37.769846,-122.22569
CA,Oakley city,Contra Costa County,45761,37.996149,-121.693624
CA,Oceanside city,San Diego County,170020,33.224601,-117.306291
CA,Ojai city,Ventura County,7466,34.449199,-119.246664
CA,Ontario city,San Bernardino County,182457,34.037648,-117.604433
CA,Orange Cove city,Fresno County,9497,36.621145,-119.31875
CA,Orange city,Orange County,138337,33.786971,-117.861265
CA,Orinda city,Contra Costa County,19364,37.88161,-122.168595
CA,Orland city,Glenn County,8132,39.746082,-122.185545
CA,Oroville city,Butte County,19449,39.495423,-121.560069
CA,Oxnard city,Ventura County,198488,34.199436,-119.207515
CA,Pacific Grove city,Monterey County,14757,36.622577,-121.92643
CA,Pacifica city,San Mateo County,36426,37.606598,-122.47723
CA,Palm Desert city,Riverside County,51951,33.737635,-116.364145
CA,Palm Springs city,Riverside County,45218,33.803361,-116.53828
CA,Palmdale city,Los Angeles County,161404,34.591038,-118.105403
CA,Palo Alto city,Santa Clara County,65882,37.39652,-122.143088
CA,Palos Verdes Estates city,Los Angeles County,12646,33.774271,-118.425754
CA,Paradise town,Butte County,8285,39.754192,-121.6064
CA,Paramount city,Los Angeles County,51072,33.898883,-118.166629
CA,Parlier city,Fresno County,14426,36.608993,-119.54361
CA,Pasadena city,Los Angeles County,133560,34.160602,-118.137954
CA,Patterson city,Stanislaus County,25063,37.475876,-121.153882
CA,Perris city,Riverside County,80603,33.789849,-117.222171
CA,Petaluma city,Sonoma County,58800,38.242251,-122.628769
CA,Pico Rivera city,Los Angeles County,59189,33.989524,-118.089295
CA,Piedmont city,Alameda County,10635,37.822545,-122.230024
CA,Pinole city,Contra Costa County,18481,38.001702,-122.318488
CA,Pismo Beach city,San Luis Obispo County,7948,35.153173,-120.673874
CA,Pittsburg city,Contra Costa County,75803,38.016771,-121.896948
CA,Placentia city,Orange County,52192,33.881158,-117.854783
CA,Placerville city,El Dorado County,10656,38.731116,-120.797677
CA,Pleasant Hill city,Contra Costa County,33802,37.954163,-122.075772
CA,Pleasanton city,Alameda County,74653,37.667185,-121.88123
CA,Plymouth city,Amador County,1131,38.471741,-120.857194
CA,Point Arena city,Mendocino County,451,38.912306,-123.695609
CA,Pomona city,Los Angeles County,145502,34.058494,-117.761091
CA,Port Hueneme city,Ventura County,21217,34.162143,-119.204177
CA,Porterville city,Tulare County,62876,36.063542,-119.0336
CA,Portola Valley town,San Mateo County,4204,37.365191,-122.232724
CA,Portola city,Plumas County,2124,39.820799,-120.474293
CA,Poway city,San Diego County,48051,32.987677,-117.021814
CA,Rancho Cordova city,Sacramento County,82605,38.577079,-121.236187
CA,Rancho Cucamonga city,San Bernardino County,174405,34.130306,-117.566067
CA,Rancho Mirage city,Riverside County,17795,33.763838,-116.430388
CA,Rancho Palos Verdes city,Los Angeles County,39980,33.738517,-118.369685
CA,Rancho Santa Margarita city,Orange County,46182,33.632332,-117.599008
CA,Red Bluff city,Tehama County,14413,40.173515,-122.241525
CA,Redding city,Shasta County,92727,40.570277,-122.366766
CA,Redlands city,San Bernardino County,72556,34.053506,-117.170476
CA,Redondo Beach city,Los Angeles County,67749,33.849538,-118.400755
CA,Redwood City city,San Mateo County,80996,37.515274,-122.213672
CA,Reedley city,Fresno County,25958,36.598364,-119.446687
CA,Rialto city,San Bernardino County,103391,34.117419,-117.389215
CA,Richmond city,Contra Costa County,114106,37.952278,-122.360609
CA,Ridgecrest city,Kern County,28088,35.628542,-117.663992
CA,Rio Dell city,Humboldt County,3308,40.49557,-124.115163
CA,Rio Vista city,Solano County,10145,38.176672,-121.703406
CA,Ripon city,San Joaquin County,16068,37.742007,-121.130373
CA,Riverbank city,Stanislaus County,25001,37.726022,-120.94484
CA,Riverside city,Riverside County,318858,33.938143,-117.393168
CA,Rocklin city,Placer County,73472,38.806868,-121.249696
CA,Rohnert Park city,Sonoma County,44546,38.347617,-122.700896
CA,Rolling Hills Estates city,Los Angeles County,8033,33.778442,-118.327432
CA,Rolling Hills city,Los Angeles County,1644,33.760016,-118.347168
CA,Rosemead city,Los Angeles County,49305,34.06888,-118.08268
CA,Roseville city,Placer County,159135,38.770296,-121.319634
CA,Ross town,Marin County,2290,37.963821,-122.561614
CA,Sacramento city,Sacramento County,526384,38.567694,-121.468161
CA,Salinas city,Monterey County,159506,36.690217,-121.633793
CA,San Anselmo town,Marin County,12498,37.982117,-122.569921
CA,San Bernardino city,San Bernardino County,223728,34.14114,-117.294635
CA,San Bruno city,San Mateo County,41327,37.62556,-122.431397
CA,San Buenaventura (Ventura) city,Ventura County,109058,34.26778,-119.254206
CA,San Carlos city,San Mateo County,28862,37.499034,-122.267572
CA,San Clemente city,Orange County,62313,33.449143,-117.61312
CA,San Diego city,San Diego County,1388320,32.814977,-117.135562
CA,San Dimas city,Los Angeles County,33105,34.107957,-117.808529
CA,San Fernando city,Los Angeles County,23364,34.288652,-118.436243
CA,San Francisco city,San Francisco County,808988,37.727239,-123.032229
CA,San Gabriel city,Los Angeles County,37732,34.094636,-118.098469
CA,San Jacinto city,Riverside County,55440,33.798864,-116.995914
CA,San Joaquin city,Fresno County,3679,36.605569,-120.189922
CA,San Jose city,Santa Clara County,969655,37.296011,-121.814552
CA,San Juan Bautista city,San Benito County,2106,36.845132,-121.536949
CA,San Juan Capistrano city,Orange County,34754,33.500889,-117.654388
CA,San Leandro city,Alameda County,85784,37.703368,-122.163036
CA,San Luis Obispo city,San Luis Obispo County,49244,35.266195,-120.668438
CA,San Marcos city,San Diego County,94188,33.132567,-117.169892
CA,San Marino city,Los Angeles County,11977,34.122671,-118.112911
CA,San Mateo city,San Mateo County,101327,37.56031,-122.3106
CA,San Pablo city,Contra Costa County,31249,37.962861,-122.342581
CA,San Rafael city,Marin County,59555,37.981003,-122.50693
CA,San Ramon city,Contra Costa County,84929,37.765258,-121.931987
CA,Sand City city,Monterey County,328,36.62177,-121.847668
CA,Sanger city,Fresno County,26343,36.698967,-119.557483
CA,Santa Ana city,Orange County,310539,33.736332,-117.8829
CA,Santa Barbara city,Santa Barbara County,86499,34.403592,-119.713714
CA,Santa Clara city,Santa Clara County,131062,37.364621,-121.967973
CA,Santa Clarita city,Los Angeles County,224028,34.416504,-118.500693
CA,Santa Cruz city,Santa Cruz County,61501,36.974385,-122.035268
CA,Santa Fe Springs city,Los Angeles County,20174,33.933565,-118.062611
CA,Santa Maria city,Santa Barbara County,109987,34.933076,-120.443559
CA,Santa Monica city,Los Angeles County,89922,34.010911,-118.498245
CA,Santa Paula city,Ventura County,31792,34.354941,-119.066271
CA,Santa Rosa city,Sonoma County,175845,38.445824,-122.706181
CA,Santee city,San Diego County,59478,32.85499,-116.986056
CA,Saratoga city,Santa Clara County,29607,37.268326,-122.02622
CA,Sausalito city,Marin County,7021,37.858369,-122.491844
CA,Scotts Valley city,Santa Cruz County,11879,37.055499,-122.011769
CA,Seal Beach city,Orange County,24352,33.754399,-118.07132
CA,Seaside city,Monterey County,31317,36.625058,-121.817804
CA,Sebastopol city,Sonoma County,7380,38.400003,-122.827586
CA,Selma city,Fresno County,24467,36.571728,-119.613879
CA,Shafter city,Kern County,21915,35.479421,-119.201285
CA,Shasta Lake city,Shasta County,10262,40.676564,-122.380909
CA,Sierra Madre city,Los Angeles County,10713,34.168771,-118.050216
CA,Signal Hill city,Los Angeles County,11249,33.803461,-118.169735
CA,Simi Valley city,Ventura County,125113,34.266887,-118.748458
CA,Solana Beach city,San Diego County,12675,32.9913,-117.258062
CA,Soledad city,Monterey County,23947,36.434522,-121.317759
CA,Solvang city,Santa Barbara County,5970,34.593758,-120.13968
CA,Sonoma city,Sonoma County,10619,38.290331,-122.459831
CA,Sonora city,Tuolumne County,4917,37.981707,-120.382755
CA,South El Monte city,Los Angeles County,19032,34.050377,-118.048384
CA,South Gate city,Los Angeles County,90070,33.944159,-118.192761
CA,South Lake Tahoe city,El Dorado County,21079,38.928218,-119.981
CA,South Pasadena city,Los Angeles County,25623,34.108957,-118.156615
CA,South San Francisco city,San Mateo County,63123,37.655104,-122.376234
CA,St. Helena city,Napa County,5272,38.512806,-122.468076
CA,Stanton city,Orange County,38815,33.800233,-117.993449
CA,Stockton city,San Joaquin County,319543,37.977243,-121.308865
CA,Suisun City city,Solano County,28743,38.248334,-122.010066
CA,Sunnyvale city,Santa Clara County,151967,37.385797,-122.026316
CA,Susanville city,Lassen County,12689,40.433674,-120.628306
CA,Sutter Creek city,Amador County,2718,38.392445,-120.798969
CA,Taft city,Kern County,6961,35.126696,-119.424194
CA,Tehachapi city,Kern County,10881,35.142959,-118.446036
CA,Tehama city,Tehama County,424,40.021776,-122.126901
CA,Temecula city,Riverside County,110682,33.493073,-117.131734
CA,Temple City city,Los Angeles County,34854,34.102156,-118.057971
CA,Thousand Oaks city,Ventura County,123463,34.19329,-118.874235
CA,Tiburon town,Marin County,8846,37.886768,-122.462619
CA,Torrance city,Los Angeles County,139224,33.830453,-118.356618
CA,Tracy city,San Joaquin County,98010,37.727396,-121.452195
CA,Trinidad city,Humboldt County,325,41.057708,-124.143255
CA,Truckee town,Nevada County,17039,39.350548,-120.193943
CA,Tulare city,Tulare County,71092,36.199366,-119.341921
CA,Tulelake city,Siskiyou County,867,41.95346,-121.474897
